名称,地址,快充数量,慢充数量,支付方式,充电费,服务费,停车费,开放时间,链接,location,district,lng_wgs,lat_wgs
特来电上海中铁二十四局充电站,上海市市辖区杨浦区邯郸路8号中国钢铁交易大厦,0,18,充电吧APP,"00:00~06:00:0.45,06:00~08:00:0.814,08:00~11:00:1.267,11:00~18:00:0.814,18:00~21:00:1.267,21:00~22:00:0.814,22:00~24:00:0.45
","00:00~06:00:0.8000,06:00~08:00:0.8000,08:00~11:00:0.8000,11:00~18:00:0.8000,18:00~21:00:0.8000,21:00~22:00:0.8000,22:00~24:00:0.8000",10元/小时（收费标准仅供参考，以现场实际收费为准）,开放时间：周一至周日00:00-24:00,https://admin.bjev520.com/jsp/beiqi/pcmap/do/pcmap_Detail.jsp?charingId=4494,"121.490475,31.293861",杨浦区,121.48600408744217,31.295823939299357
特来电上海五角场万达充电站,上海市市辖区杨浦区国宾路36号B2,0,22,充电吧APP,00:00~24:00:1.25,00:00~24:00:0.8000,10元/小时（仅供参考，以场地实际费用为准）,开放时间：周一至周日00:00-24:00,https://admin.bjev520.com/jsp/beiqi/pcmap/do/pcmap_Detail.jsp?charingId=6056,"121.513286,31.300720",杨浦区,121.50889655727762,31.30274837987248
特来电上海曹安景林苑充电站,上海市市辖区嘉定区嘉定曹安公路4908号,0,2,充电吧APP,00:00~24:00:1.3,00:00~24:00:0.8000,不详,开放时间：周一至周日00:00-24:00,https://admin.bjev520.com/jsp/beiqi/pcmap/do/pcmap_Detail.jsp?charingId=7058,"121.204744,31.288029",嘉定区,121.20027733897871,31.289990880002073
特来电上海通利大厦充电站,上海市市辖区静安区南京西路969号,2,12,充电吧APP,00:00~24:00:1.1,00:00~24:00:0.8000,15元/小时（仅供参考，以场地实际费用为准）,开放时间：周一至周日00:00-24:00,https://admin.bjev520.com/jsp/beiqi/pcmap/do/pcmap_Detail.jsp?charingId=9550,"121.458940,31.229367",静安区,121.45437215735011,31.231272208211045
特来电上海惠民停车场充电站,上海市市辖区浦东新区浦东新区华洲南路18号,1,3,充电吧APP,00:00~24:00:1.1,00:00~24:00:0.8000,5元/小时，每天20元（仅供参考，以场地实际费用为准）,开放时间：周一至周日00:00-24:00,https://admin.bjev520.com/jsp/beiqi/pcmap/do/pcmap_Detail.jsp?charingId=9645,"121.774793,31.185226",浦东新区,121.77044160314125,31.187273988156647
特来电上海马桥万科城充电站,上海市市辖区闵行区银春路2200弄,2,4,充电吧APP,00:00~24:00:1.3,00:00~24:00:0.8000,6元/小时（仅供参考，以现场实际收费为准）,开放时间：周一至周日00:00-24:00,https://admin.bjev520.com/jsp/beiqi/pcmap/do/pcmap_Detail.jsp?charingId=17551,"121.295741,31.203463",闵行区,121.29126936906933,31.205460593737566
特来电上海欧亚美马陆店充电站,上海市市辖区嘉定区宝安公路3690号,2,0,充电吧APP,00:00~24:00:1.35,00:00~24:00:0.8000,5元/小时（仅供参考，以现场实际收费为准）,开放时间：周一至周日00:00-24:00,https://admin.bjev520.com/jsp/beiqi/pcmap/do/pcmap_Detail.jsp?charingId=18127,"121.269900,31.327244",嘉定区,121.26545500697951,31.32921874606895
特来电上海嘉定西云楼充电站,上海市市辖区嘉定区洪德路与裕民南路西地块商业地库停车位,1,3,充电吧APP,00:00~24:00:1.3,00:00~24:00:0.8000,不详,开放时间：周一至周日00:00-24:00,https://admin.bjev520.com/jsp/beiqi/pcmap/do/pcmap_Detail.jsp?charingId=21568,"121.260826,31.357828",嘉定区,121.25638551917099,31.359797520788547
特来电上海禹洲蓝爵充电站,上海市市辖区浦东新区金港路199弄6号,3,0,充电吧APP,00:00~24:00:1.3,00:00~24:00:0.8000,4元/时（仅供参考，以场地实际收费为准）,开放时间：周一至周日00:00-24:00,https://admin.bjev520.com/jsp/beiqi/pcmap/do/pcmap_Detail.jsp?charingId=21947,"121.610496,31.257298",浦东新区,121.60629112257624,31.259484893390855
特来电上海梅赛德斯奔驰文化中心充电站,上海市市辖区浦东新区世博大道1200号,6,0,充电吧APP,00:00~24:00:1.2,00:00~24:00:0.8000,10元/时（仅供参考，以场地方实际收费为准）,开放时间：周一至周日09:00-22:00,https://admin.bjev520.com/jsp/beiqi/pcmap/do/pcmap_Detail.jsp?charingId=23167,"121.493166,31.188482",浦东新区,121.48871369683168,31.190500487046748
普洛斯上海虹桥北物流园,普洛斯虹桥物流园北区,2,0,支付宝、微信,不详,不详,不详,开放时间：全天开放,https://admin.bjev520.com/jsp/beiqi/pcmap/do/pcmap_Detail.jsp?charingId=42526,"121.284649,31.223703",闵行区,121.28019436222702,31.22570626046575
普洛斯上海虹桥西物流园,华徐公路589号,8,0,支付宝、微信,不详,不详,不详,开放时间：全天开放,https://admin.bjev520.com/jsp/beiqi/pcmap/do/pcmap_Detail.jsp?charingId=42527,"121.263892,31.192902",青浦区,121.25946349582453,31.194938662458277
普洛斯上海闵行物流园,莲花南路3000号,4,0,支付宝、微信,不详,不详,不详,开放时间：全天开放,https://admin.bjev520.com/jsp/beiqi/pcmap/do/pcmap_Detail.jsp?charingId=42528,"121.431810,31.060366",闵行区,121.42719675775754,31.062309855604752
特来电上海红塔大酒店充电站,上海市市辖区浦东新区东方路889号,6,0,其他,"00:00~06:00:0.2749,06:00~08:00:0.6436,08:00~11:00:1.1352,11:00~18:00:0.6436,18:00~19:00:1.1352,19:00~21:00:1.4117,21:00~22:00:0.6436,22:00~24:00:0.2749
","00:00~06:00:0.7550,06:00~08:00:0.5100,08:00~11:00:0.4050,11:00~13:00:0.5100,13:00~15:00:0.4050,15:00~18:00:0.5100,18:00~21:00:0.4050,21:00~22:00:0.5100,22:00~24:00:0.7550",不详,开放时间：周一至周日00:00-24:00,https://admin.bjev520.com/jsp/beiqi/pcmap/do/pcmap_Detail.jsp?charingId=42586,"121.528309,31.223872",浦东新区,121.5239774437162,31.225975917294956
上海闵行区沈杜公路电动汽车充电站,浦江镇轨交8号线沈杜公路P+R地铁站,8,3,"充电卡,二维码",不详,不详,不详,开放时间：00:00:00-21:00:00,https://admin.bjev520.com/jsp/beiqi/pcmap/do/pcmap_Detail.jsp?charingId=47108,"121.513248,31.060281",闵行区,121.50887869930818,31.062428779896724
上海闵行区乐购超市莘庄店电动汽车充电站,七莘路695号,8,7,"充电卡,二维码",不详,不详,不详,开放时间：00:00:00-23:59:59,https://admin.bjev520.com/jsp/beiqi/pcmap/do/pcmap_Detail.jsp?charingId=47122,"121.372018,31.118982",闵行区,121.36739809637591,31.120892500744475
上海闵行区浦晓南路停车场（卜蜂莲花）电动汽车充电站,浦星公路江月路卜蜂莲花停车场,8,4,"充电卡,二维码",不详,不详,不详,开放时间：00:00:00-23:59:59,https://admin.bjev520.com/jsp/beiqi/pcmap/do/pcmap_Detail.jsp?charingId=47123,"121.509518,31.083301",闵行区,121.50513349249815,31.085424665623634
上海嘉定区顺驰兰郡别墅电动汽车充电点,百安公路2999号,0,9,"充电卡,二维码",不详,不详,不详,开放时间：00:00:00-23:59:59,https://admin.bjev520.com/jsp/beiqi/pcmap/do/pcmap_Detail.jsp?charingId=47176,"121.173180,31.354420",嘉定区,121.16864807011706,31.356302386334114
上海嘉定区骏丰广场电动汽车充电站,上海市嘉定区沪宜公路139号,16,0,"充电卡,二维码",不详,不详,不详,开放时间：00:00:00-23:59:59,https://admin.bjev520.com/jsp/beiqi/pcmap/do/pcmap_Detail.jsp?charingId=47188,"121.318990,31.290702",嘉定区,121.31446244417917,31.292620417900388
上海嘉定区嘉美路电动汽车充电站,上海市嘉定区沪宜公路-嘉美路路口（嘉闵高架下停车场）,8,0,"充电卡,二维码",不详,不详,不详,开放时间：00:00:00-23:59:59,https://admin.bjev520.com/jsp/beiqi/pcmap/do/pcmap_Detail.jsp?charingId=47206,"121.276964,31.301162",嘉定区,121.2725133945787,31.303140425520994
上海嘉定区宝翔路大桥电动汽车充电站,上海市嘉定区嘉绣东路-宝翔路大桥下,8,0,"充电卡,二维码,账户余额",不详,不详,不详,开放时间：00:00:00-23:59:59,https://admin.bjev520.com/jsp/beiqi/pcmap/do/pcmap_Detail.jsp?charingId=47207,"121.288323,31.325273",嘉定区,121.28385392244125,31.327229045581863
G1501上海绕城高速庄行服务区（上海绕城）电动汽车充电站,G1501上海绕城高速庄行服务区（上海绕城方向）,4,0,"充电卡,二维码",不详,不详,不详,开放时间：00:00:00-23:59:59,https://admin.bjev520.com/jsp/beiqi/pcmap/do/pcmap_Detail.jsp?charingId=47394,"121.395041,30.888550",奉贤区,121.39042043492881,30.89057670728333
上海徐汇区中山西路高架桥停车场电动汽车充电站,上海市徐汇区漕溪路三汇路高架桥荫停车场内,8,3,"充电卡,二维码",不详,不详,不详,开放时间：00:00:00-23:59:59,https://admin.bjev520.com/jsp/beiqi/pcmap/do/pcmap_Detail.jsp?charingId=56148,"121.434552,31.179424",徐汇区,121.42993294241958,31.1813069515146
上海嘉定区华翔路电动汽车充电站,上海市嘉定区华翔路-金昌路路口,8,0,"充电卡,二维码",不详,不详,不详,开放时间：00:00:00-23:59:59,https://admin.bjev520.com/jsp/beiqi/pcmap/do/pcmap_Detail.jsp?charingId=56320,"121.272906,31.291625",嘉定区,121.26846094110012,31.293610955295673
S2沪芦高速临港服务区（上海方向）电动汽车充电站,S2沪芦高速临港服务区（上海方向）,4,0,"充电卡,二维码",不详,不详,不详,开放时间：00:00:00-23:59:59,https://admin.bjev520.com/jsp/beiqi/pcmap/do/pcmap_Detail.jsp?charingId=56323,"121.804281,30.916888",浦东新区,121.8000077997382,30.919126887951954
G1501上海绕城高速合庆服务区西（上海绕城）电动汽车充电站,G1501上海绕城高速合庆服务区西（上海绕城）,4,0,"充电卡,二维码",不详,不详,不详,开放时间：00:00:00-23:59:59,https://admin.bjev520.com/jsp/beiqi/pcmap/do/pcmap_Detail.jsp?charingId=56329,"121.803856,31.158456",浦东新区,121.79956169455195,31.16055579897432
上海浦东新区轨交11号线秀沿路电动汽车充电站,秀沿路罗山路地铁站旁,8,8,"充电卡,二维码",不详,不详,不详,开放时间：00:00:00-23:59:59,https://admin.bjev520.com/jsp/beiqi/pcmap/do/pcmap_Detail.jsp?charingId=56336,"121.600181,31.132758",浦东新区,121.59598809478341,31.13500944658156
上海浦东新区珊考机动车检测维修服务有限公司电动汽车充电站,康桥镇浦三路3633号珊考机动车检测维修服务有限公司,8,3,"充电卡,二维码,账户余额",不详,不详,不详,开放时间：08:00:00-17:00:00,https://admin.bjev520.com/jsp/beiqi/pcmap/do/pcmap_Detail.jsp?charingId=56344,"121.547808,31.134562",浦东新区,121.54354173608984,31.13675808197198
上海闵行区百安居电动汽车充电站,上海市闵行区顾戴路108号,20,0,"充电卡,二维码,账户余额",不详,不详,不详,开放时间：00:00:00-23:59:59,https://admin.bjev520.com/jsp/beiqi/pcmap/do/pcmap_Detail.jsp?charingId=65583,"121.406278,31.146552",闵行区,121.40163432756464,31.148429168273243
上海闵行区向阳路S4莘奉金高速电动汽车充电站,上海市闵行区向阳路1369号,8,0,"充电卡,二维码,账户余额",不详,不详,不详,开放时间：00:00:00-23:59:59,https://admin.bjev520.com/jsp/beiqi/pcmap/do/pcmap_Detail.jsp?charingId=65586,"121.415518,31.066432",闵行区,121.41088559201582,31.06835686917504
上海松江区新桥电动汽车充电站,莘砖公路150号（近G60沪昆高速新桥收费处）,6,0,"充电卡,二维码",不详,不详,不详,开放时间：00:00:00-23:59:59,https://admin.bjev520.com/jsp/beiqi/pcmap/do/pcmap_Detail.jsp?charingId=65796,"121.327276,31.092642",松江区,121.3227466344824,31.094641797511557
上海浦东新区森宏大润发电动汽车充电站,长清路1200弄大润发停车场,8,7,"充电卡,二维码",不详,不详,不详,开放时间：00:00:00-23:59:59,https://admin.bjev520.com/jsp/beiqi/pcmap/do/pcmap_Detail.jsp?charingId=72453,"121.492142,31.149288",浦东新区,121.48768936504872,31.151323524635107
上海浦东新区泥城镇人民政府电动汽车充电站,上海市浦东新区泥城支路2号（泥城中学对面）,8,0,"充电卡,二维码",不详,不详,不详,开放时间：00:00:00-23:59:59,https://admin.bjev520.com/jsp/beiqi/pcmap/do/pcmap_Detail.jsp?charingId=72459,"121.830245,30.904225",浦东新区,121.82603727095744,30.906518559947905
上海浦东新区下沙集贸市场电动汽车充电站,沪南路鹤立西路路口向西,8,0,"充电卡,二维码",不详,不详,不详,开放时间：00:00:00-23:59:59,https://admin.bjev520.com/jsp/beiqi/pcmap/do/pcmap_Detail.jsp?charingId=72469,"121.558812,31.172499",浦东新区,121.55456892008017,31.1746962534739
上海松江区嘉立广场电动汽车充电站,上海市松江区广富林路699弄,8,0,"充电卡,二维码",不详,不详,不详,开放时间：00:00:00-23:59:59,https://admin.bjev520.com/jsp/beiqi/pcmap/do/pcmap_Detail.jsp?charingId=72491,"121.243917,31.055568",松江区,121.23950595077649,31.057682027523665
G60沪昆高速枫泾服务区（昆明方向）电动汽车充电站,G60沪杭高速枫泾服务区（昆明方向）,16,0,"充电卡,二维码",不详,不详,不详,开放时间：00:00:00-23:59:59,https://admin.bjev520.com/jsp/beiqi/pcmap/do/pcmap_Detail.jsp?charingId=72497,"121.037329,30.890538",金山区,121.03284465228529,30.892647085384016
G60沪昆高速枫泾服务区（上海方向）电动汽车充电站,G60沪杭高速枫泾服务区（上海方向）,12,0,"充电卡,二维码",不详,不详,不详,开放时间：00:00:00-23:59:59,https://admin.bjev520.com/jsp/beiqi/pcmap/do/pcmap_Detail.jsp?charingId=72498,"121.037329,30.890538",金山区,121.03284465228529,30.892647085384016
上海金山区枫泾社区服务中心电动汽车充电站,枫杰路51号,8,0,"充电卡,二维码",不详,不详,不详,开放时间：00:00:00-23:59:59,https://admin.bjev520.com/jsp/beiqi/pcmap/do/pcmap_Detail.jsp?charingId=72503,"121.020454,30.890862",金山区,121.01602496320004,30.893016259133283
上海金山区区政府会议中心电动汽车充电站,金山大道1980号,8,0,"充电卡,二维码",不详,不详,不详,开放时间：00:00:00-23:59:59,https://admin.bjev520.com/jsp/beiqi/pcmap/do/pcmap_Detail.jsp?charingId=72514,"121.344763,30.741508",金山区,121.34022465611504,30.74367603979664
上海松江区泗泾文化中心（东）电动汽车充电站,鼓浪路588号东,8,0,"充电卡,二维码",不详,不详,不详,开放时间：00:00:00-23:59:59,https://admin.bjev520.com/jsp/beiqi/pcmap/do/pcmap_Detail.jsp?charingId=72551,"121.271392,31.115740",松江区,121.26696344646689,31.11781193340561
特来电高合充电站（上海悠方购物广场）,上海市市辖区杨浦区殷行路1388号,15,5,其他,00:00~24:00:1.0,"00:00~06:00:0.8000,06:00~08:00:0.8000,08:00~11:00:0.4000,11:00~13:00:0.8000,13:00~15:00:0.4000,15:00~18:00:0.8000,18:00~21:00:0.4000,21:00~22:00:0.8000,22:00~24:00:0.8000",不详,开放时间：周一至周日00:00-24:00,https://admin.bjev520.com/jsp/beiqi/pcmap/do/pcmap_Detail.jsp?charingId=79649,"121.507796,31.329957",杨浦区,121.50338445319332,31.331958127406907
露虹二期快充站,都市路659号入场250米南侧,22,0,支付宝、微信,不详,不详,不详,开放时间：全天开放,https://admin.bjev520.com/jsp/beiqi/pcmap/do/pcmap_Detail.jsp?charingId=83469,"121.419411,31.040226",闵行区,121.41478403949348,31.042168592012235
特来电上海歌斐香溢广场充电站,上海市市辖区普陀区石泉东路256号,11,3,其他,"00:00~06:00:0.2749,06:00~08:00:0.6436,08:00~11:00:1.1352,11:00~18:00:0.6436,18:00~19:00:1.1352,19:00~21:00:1.4117,21:00~22:00:0.6436,22:00~24:00:0.2749
","00:00~06:00:0.6763,06:00~08:00:0.5046,08:00~11:00:0.3382,11:00~13:00:0.5046,13:00~15:00:0.3382,15:00~18:00:0.5046,18:00~21:00:0.3382,21:00~22:00:0.5046,22:00~24:00:0.6763",不详,开放时间：周一至周日00:00-24:00,https://admin.bjev520.com/jsp/beiqi/pcmap/do/pcmap_Detail.jsp?charingId=87643,"121.431934,31.255009",普陀区,121.42730406971353,31.256852592861286
特来电上海兆益科技园充电站,上海市市辖区长宁区天山路8号,0,8,其他,"00:00~06:00:0.3119,06:00~08:00:0.7361,08:00~12:00:1.3017,12:00~14:00:1.6198,14:00~15:00:1.3017,15:00~18:00:0.7361,18:00~21:00:1.3017,21:00~22:00:0.7361,22:00~24:00:0.3119
",00:00~24:00:0.3500,10分钟内免费，超时5元/小时。,开放时间：周一至周日00:00-24:00,https://admin.bjev520.com/jsp/beiqi/pcmap/do/pcmap_Detail.jsp?charingId=87743,"121.377968,31.216276",长宁区,121.37333210948022,31.218130197837123
特来电上海迪士尼P2停车场充电站,上海市市辖区浦东新区灵感街与申迪东路交叉口东200米,26,0,其他,"00:00~06:00:0.2749,06:00~08:00:0.6436,08:00~11:00:1.1352,11:00~18:00:0.6436,18:00~19:00:1.1352,19:00~21:00:1.4117,21:00~22:00:0.6436,22:00~24:00:0.2749
","00:00~06:00:0.5870,06:00~08:00:0.4330,08:00~11:00:0.2840,11:00~13:00:0.4330,13:00~15:00:0.2840,15:00~18:00:0.4330,18:00~21:00:0.2840,21:00~22:00:0.4330,22:00~24:00:0.5870",不详,开放时间：周一至周日00:00-24:00,https://admin.bjev520.com/jsp/beiqi/pcmap/do/pcmap_Detail.jsp?charingId=87777,"121.675311,31.136216",浦东新区,121.6710222482636,31.13836718990423
特来电上海新梅联合广场充电站,上海市市辖区浦东新区浦东南路999号,0,4,其他,00:00~24:00:1.05,00:00~24:00:0.5500,15分钟内免费，首小时收费10元，第2小时起每半小时收费5元。,开放时间：周一至周日00:00-24:00,https://admin.bjev520.com/jsp/beiqi/pcmap/do/pcmap_Detail.jsp?charingId=87813,"121.516128,31.229462",浦东新区,121.51175460544471,31.23152921402943
特来电上海铁力路示范充电站,上海市市辖区宝山区铁力路1508号,100,0,其他,"00:00~06:00:0.3045,06:00~08:00:0.7177,08:00~12:00:1.2685,12:00~14:00:1.5784,14:00~15:00:1.2685,15:00~18:00:0.7177,18:00~21:00:1.2685,21:00~22:00:0.7177,22:00~24:00:0.3045
","00:00~06:00:0.5870,06:00~08:00:0.4330,08:00~11:00:0.2840,11:00~13:00:0.4330,13:00~15:00:0.2840,15:00~18:00:0.4330,18:00~21:00:0.2840,21:00~22:00:0.4330,22:00~24:00:0.5870",不详,开放时间：周一至周日00:00-24:00,https://admin.bjev520.com/jsp/beiqi/pcmap/do/pcmap_Detail.jsp?charingId=87817,"121.463536,31.396661",宝山区,121.45896690291045,31.398514251101425
特来电上海新业坊充电站,上海市市辖区宝山区逸仙路1328号,0,119,其他,00:00~24:00:1.0,00:00~24:00:0.8000,不详,开放时间：周一至周日00:00-24:00,https://admin.bjev520.com/jsp/beiqi/pcmap/do/pcmap_Detail.jsp?charingId=87863,"121.483836,31.318393",宝山区,121.47933959333308,31.320326960961495
特来电上海佳预广场充电站,上海市市辖区松江区九亭镇沪松公路1177号,20,0,其他,"00:00~06:00:0.2749,06:00~08:00:0.6436,08:00~11:00:1.1352,11:00~18:00:0.6436,18:00~19:00:1.1352,19:00~21:00:1.4117,21:00~22:00:0.6436,22:00~24:00:0.2749
","00:00~06:00:0.5870,06:00~08:00:0.4330,08:00~11:00:0.2840,11:00~13:00:0.4330,13:00~15:00:0.0840,15:00~18:00:0.4330,18:00~21:00:0.2840,21:00~22:00:0.4330,22:00~24:00:0.5870",不详,开放时间：周一至周日00:00-24:00,https://admin.bjev520.com/jsp/beiqi/pcmap/do/pcmap_Detail.jsp?charingId=88797,"121.329681,31.144534",松江区,121.32514172011116,31.14650089510578
特来电上海仙乐斯广场充电站,上海市市辖区黄浦区南京西路388号,14,0,其他,"00:00~06:00:0.3024,06:00~08:00:0.708,08:00~11:00:1.2487,11:00~18:00:0.708,18:00~19:00:1.2487,19:00~21:00:1.4117,21:00~22:00:0.708,22:00~24:00:0.3024
","00:00~06:00:0.7712,06:00~08:00:0.6038,08:00~11:00:0.5199,11:00~13:00:0.6038,13:00~15:00:0.5199,15:00~18:00:0.6038,18:00~21:00:0.5199,21:00~22:00:0.6038,22:00~24:00:0.7712",不详,开放时间：周一至周日00:00-24:00,https://admin.bjev520.com/jsp/beiqi/pcmap/do/pcmap_Detail.jsp?charingId=89369,"121.469024,31.231440",黄浦区,121.46448590681064,31.233369286613797
特来电黄浦区华旭国际大厦充电站,上海市市辖区黄浦区西藏中路336,0,3,其他,00:00~24:00:1.5,00:00~24:00:0.8000,以场地实际收费为准,开放时间：周一至周日00:00-24:00,https://admin.bjev520.com/jsp/beiqi/pcmap/do/pcmap_Detail.jsp?charingId=89373,"121.475835,31.233751",黄浦区,121.471318667689,31.235697582218037
特来电上海博荟广场充电站,上海市市辖区黄浦区龙华东路319-455号,13,26,其他,00:00~24:00:0.75,00:00~24:00:0.8000,具体收费以场地方为准,开放时间：周一至周日00:00-24:00,https://admin.bjev520.com/jsp/beiqi/pcmap/do/pcmap_Detail.jsp?charingId=89374,"121.482121,31.196831",黄浦区,121.47762907648317,31.198812886684312
特来电上海凯进路充电站,上海市市辖区徐汇区宜山路425号,24,0,其他,"00:00~06:00:0.392,06:00~08:00:0.79,08:00~11:00:1.205,11:00~18:00:0.79,18:00~19:00:1.205,19:00~21:00:1.767,21:00~22:00:0.79,22:00~24:00:0.392
","00:00~06:00:0.6520,06:00~08:00:0.5010,08:00~11:00:0.3340,11:00~13:00:0.5010,13:00~15:00:0.3340,15:00~18:00:0.5010,18:00~21:00:0.3340,21:00~22:00:0.5010,22:00~24:00:0.6520",不详,开放时间：周一至周日00:00-24:00,https://admin.bjev520.com/jsp/beiqi/pcmap/do/pcmap_Detail.jsp?charingId=89399,"121.428622,31.183807",徐汇区,121.42399331792411,31.1856800321864
特来电上海黄浦来福士广场充电站,上海市市辖区黄浦区西藏中路268号,20,44,其他,"00:00~08:00:0.8,08:00~20:00:0.8,20:00~24:00:0.8
",00:00~24:00:1.1000,20元每小时首小时20元，第二小时开始，每半小时10元，每24小时封顶价160元,开放时间：周一至周日00:00-24:00,https://admin.bjev520.com/jsp/beiqi/pcmap/do/pcmap_Detail.jsp?charingId=89402,"121.476581,31.232275",黄浦区,121.47206727140819,31.23422433086938
特来电上海滨江万科中心充电站,上海市市辖区浦东新区民生路118号地下车库B2层,5,0,其他,"00:00~06:00:0.2749,06:00~08:00:0.6436,08:00~11:00:1.1352,11:00~18:00:0.6436,18:00~19:00:1.1352,19:00~21:00:1.4117,21:00~22:00:0.6436,22:00~24:00:0.2749
","00:00~06:00:0.7870,06:00~08:00:0.6330,08:00~11:00:0.4840,11:00~13:00:0.6330,13:00~15:00:0.4840,15:00~18:00:0.6330,18:00~21:00:0.4840,21:00~22:00:0.6330,22:00~24:00:0.7870",不详,开放时间：周一至周日00:00-24:00,https://admin.bjev520.com/jsp/beiqi/pcmap/do/pcmap_Detail.jsp?charingId=89603,"121.538882,31.244819",浦东新区,121.53458162687377,31.246940252184267
特来电上海海航大厦（快充）充电站,上海市市辖区浦东新区浦明路898号地下B2层过道闸右手边,7,0,其他,"00:00~06:00:0.2749,06:00~08:00:0.6436,08:00~11:00:1.1352,11:00~18:00:0.6436,18:00~19:00:1.1352,19:00~21:00:1.4117,21:00~22:00:0.6436,22:00~24:00:0.2749
","00:00~06:00:0.786,06:00~08:00:0.593,08:00~11:00:0.405,11:00~13:00:0.593,13:00~15:00:0.405,15:00~18:00:0.593,18:00~21:00:0.405,21:00~22:00:0.593,22:00~24:00:0.786",不详,开放时间：周一至周日00:00-24:00,https://admin.bjev520.com/jsp/beiqi/pcmap/do/pcmap_Detail.jsp?charingId=90241,"121.513411,31.217575",浦东新区,121.50902903213094,31.219639856849554
馨越公寓IV,上海市千阳南路99弄,0,16,其他,不详,不详,不详,开放时间：周一至周日00:00-24:00,https://admin.bjev520.com/jsp/beiqi/pcmap/do/pcmap_Detail.jsp?charingId=90297,"121.365361,31.229519",普陀区,121.36074154230441,31.231381972323653
古北陆翔苑,上海市宝山区陆翔路358弄-古北陆翔苑94号楼东侧地面车位ST01-ST10号车位。,0,10,其他,不详,不详,不详,开放时间：周一至周日00:00-24:00,https://admin.bjev520.com/jsp/beiqi/pcmap/do/pcmap_Detail.jsp?charingId=90299,"121.339129,31.400516",宝山区,121.33454635672028,31.402358655735412
爱建顾园西区,上海市宝山区菊盛路50弄-小区61号楼北侧地面车位3台；64号楼东侧地面车位9台。,0,12,其他,不详,不详,不详,开放时间：周一至周日00:00-24:00,https://admin.bjev520.com/jsp/beiqi/pcmap/do/pcmap_Detail.jsp?charingId=90301,"121.374596,31.349924",宝山区,121.36995256829445,31.35172703357072
塘泾南苑,上海市闵行区曹家塘路220弄,0,12,其他,不详,不详,不详,开放时间：周一至周日00:00-24:00,https://admin.bjev520.com/jsp/beiqi/pcmap/do/pcmap_Detail.jsp?charingId=90302,"121.446006,31.041642",闵行区,121.44142160254556,31.043619449872843
虹梅景苑二街坊,上海市闵行区尚义路229弄8号楼旁边，356/358车位。,0,10,其他,不详,不详,不详,开放时间：周一至周日00:00-24:00,https://admin.bjev520.com/jsp/beiqi/pcmap/do/pcmap_Detail.jsp?charingId=90303,"121.450682,31.042014",闵行区,121.44610859177585,31.04400047182956
虹梅景苑三街坊,上海市闵行区尚义路459弄1~18号,0,10,其他,不详,不详,不详,开放时间：周一至周日00:00-24:00,https://admin.bjev520.com/jsp/beiqi/pcmap/do/pcmap_Detail.jsp?charingId=90304,"121.448880,31.045805",闵行区,121.44430190516641,31.047785620974256
虹梅景苑四街坊,上海市闵行区尚义路428弄10号楼155/156车位,0,8,其他,不详,不详,不详,开放时间：周一至周日00:00-24:00,https://admin.bjev520.com/jsp/beiqi/pcmap/do/pcmap_Detail.jsp?charingId=90305,"121.450936,31.045602",闵行区,121.44636290904587,31.047586918136986
上坤红树湾,上海市松江区光星路1855弄-上坤红树湾18号楼东面车位01~06号。,0,6,其他,不详,不详,不详,开放时间：周一至周日00:00-24:00,https://admin.bjev520.com/jsp/beiqi/pcmap/do/pcmap_Detail.jsp?charingId=90307,"121.241430,31.061119",松江区,121.23701800555983,31.063229187788544
爱建顾园北区,上海市宝山区菊盛路186弄-小区4幢10号楼北面地面停车位,0,3,其他,不详,不详,不详,开放时间：周一至周日00:00-24:00,https://admin.bjev520.com/jsp/beiqi/pcmap/do/pcmap_Detail.jsp?charingId=90308,"121.372665,31.351847",宝山区,121.36802395982878,31.35365156730706
爱建顾园东区,上海市宝山区菊泉街39弄--爱建顾园东区7号楼北侧12台。,0,12,其他,不详,不详,不详,开放时间：周一至周日00:00-24:00,https://admin.bjev520.com/jsp/beiqi/pcmap/do/pcmap_Detail.jsp?charingId=90309,"121.378548,31.351439",宝山区,121.37389966501931,31.35323745471386
共富二村一期,上海市宝山区联谊路350弄-58号楼北侧,0,9,其他,不详,不详,不详,开放时间：周一至周日00:00-24:00,https://admin.bjev520.com/jsp/beiqi/pcmap/do/pcmap_Detail.jsp?charingId=90310,"121.433351,31.345570",宝山区,121.42871546205083,31.347380007935005
海棠馨苑南区,上海市青浦区乐天路208弄-乐天路入口1-3号楼西南方向。,0,9,其他,不详,不详,不详,开放时间：周一至周日00:00-24:00,https://admin.bjev520.com/jsp/beiqi/pcmap/do/pcmap_Detail.jsp?charingId=90311,"121.242196,31.179984",青浦区,121.23777416006813,31.182029921163906
海棠馨苑北区,上海市青浦区乐天路318弄21号南侧东向西依次六个车位。,0,6,其他,不详,不详,不详,开放时间：周一至周日00:00-24:00,https://admin.bjev520.com/jsp/beiqi/pcmap/do/pcmap_Detail.jsp?charingId=90312,"121.241997,31.181716",青浦区,121.23757497047657,31.183760992302002
鑫鑫花园,上海市宝山区联泰路56号.,0,10,其他,不详,不详,不详,开放时间：周一至周日00:00-24:00,https://admin.bjev520.com/jsp/beiqi/pcmap/do/pcmap_Detail.jsp?charingId=90313,"121.428943,31.346069",宝山区,121.42430063433439,31.347873186967796
华悦家园,上海市徐汇区虹漕路19弄-华悦家园11号楼南侧地面车位；3号楼东侧地面车位。,0,14,其他,不详,不详,不详,开放时间：周一至周日00:00-24:00,https://admin.bjev520.com/jsp/beiqi/pcmap/do/pcmap_Detail.jsp?charingId=90314,"121.408920,31.165129",徐汇区,121.40427548211797,31.166997081489015
乐贤居,上海市闵行区北华路22弄,0,9,其他,不详,不详,不详,开放时间：周一至周日00:00-24:00,https://admin.bjev520.com/jsp/beiqi/pcmap/do/pcmap_Detail.jsp?charingId=90315,"121.332184,31.229106",闵行区,121.32763177087695,31.23102597887637
滨浦新苑八村,上海市闵行区浦瑞南路76号地下车库,0,7,其他,不详,不详,不详,开放时间：周一至周日00:00-24:00,https://admin.bjev520.com/jsp/beiqi/pcmap/do/pcmap_Detail.jsp?charingId=90316,"121.495178,31.063329",闵行区,121.49074353852338,31.065421022234162
共富二村二期,上海市宝山区共富二村300号（物业管理楼前车位）,0,4,其他,不详,不详,不详,开放时间：周一至周日00:00-24:00,https://admin.bjev520.com/jsp/beiqi/pcmap/do/pcmap_Detail.jsp?charingId=90317,"121.444284,31.339287",宝山区,121.43967000926591,31.341116704838072
浦江瑞和城柒街区,上海市闵行区汇舒路54弄3号楼东面地下车库,0,24,其他,不详,不详,不详,开放时间：周一至周日00:00-24:00,https://admin.bjev520.com/jsp/beiqi/pcmap/do/pcmap_Detail.jsp?charingId=90318,"121.518393,31.029449",闵行区,121.5140443080241,31.03162956311363
共富二村四期,上海市宝山区共富路156弄,0,12,其他,不详,不详,不详,开放时间：周一至周日00:00-24:00,https://admin.bjev520.com/jsp/beiqi/pcmap/do/pcmap_Detail.jsp?charingId=90319,"121.431450,31.349809",宝山区,121.42681104394026,31.351615028254386
高行绿洲一期,"上海市浦东新区白萱路99弄---小区30号楼东侧地库入口---地库220,222,224号车位。",0,11,其他,不详,不详,不详,开放时间：周一至周日00:00-24:00,https://admin.bjev520.com/jsp/beiqi/pcmap/do/pcmap_Detail.jsp?charingId=90320,"121.591296,31.330017",浦东新区,121.58708404161699,31.332177522436965
恒盛豪庭,上海市宝山区恒高路128弄,0,12,其他,不详,不详,不详,开放时间：周一至周日00:00-24:00,https://admin.bjev520.com/jsp/beiqi/pcmap/do/pcmap_Detail.jsp?charingId=90321,"121.470510,31.323044",宝山区,121.46596869680155,31.324939094103836
新江湾尚景园一期A区,上海市杨浦区江湾城国权北路1450弄,0,15,其他,不详,不详,不详,开放时间：周一至周日00:00-24:00,https://admin.bjev520.com/jsp/beiqi/pcmap/do/pcmap_Detail.jsp?charingId=90322,"121.500785,31.336067",杨浦区,121.49634760414932,31.33804492982243
新江湾尚景园一期B区,上海市杨浦区江湾城国权北路1450弄,0,12,其他,不详,不详,不详,开放时间：周一至周日00:00-24:00,https://admin.bjev520.com/jsp/beiqi/pcmap/do/pcmap_Detail.jsp?charingId=90323,"121.500785,31.336067",杨浦区,121.49634760414932,31.33804492982243
滨浦新苑七村B区,上海市闵行区浦雪南路369号地下车库,0,12,其他,不详,不详,不详,开放时间：周一至周日00:00-24:00,https://admin.bjev520.com/jsp/beiqi/pcmap/do/pcmap_Detail.jsp?charingId=90324,"121.494833,31.066535",闵行区,121.49039702788659,31.068624154917696
绿地云天坊,上海市松江区外婆泾路455弄-外婆泾路地下车库入口,0,6,其他,不详,不详,不详,开放时间：周一至周日00:00-24:00,https://admin.bjev520.com/jsp/beiqi/pcmap/do/pcmap_Detail.jsp?charingId=90325,"121.257874,31.116609",松江区,121.2534555206603,31.1186880427103
浦泾苑,上海市奉贤区定康路205弄浦泾苑---小区1号楼南侧地下车库-北侧,0,6,其他,不详,不详,不详,开放时间：周一至周日00:00-24:00,https://admin.bjev520.com/jsp/beiqi/pcmap/do/pcmap_Detail.jsp?charingId=90326,"121.504613,30.923365",奉贤区,121.50022432335584,30.925567638417366
聚缘北庭-地面-A区,上海市闵行区浦江镇浦航路36弄,0,6,其他,不详,不详,不详,开放时间：周一至周日00:00-24:00,https://admin.bjev520.com/jsp/beiqi/pcmap/do/pcmap_Detail.jsp?charingId=90327,"121.545959,31.044094",闵行区,121.54169532928529,31.046336789152075
聚缘北庭-地面-B区,上海市闵行区浦江镇浦航路36弄,0,9,其他,不详,不详,不详,开放时间：周一至周日00:00-24:00,https://admin.bjev520.com/jsp/beiqi/pcmap/do/pcmap_Detail.jsp?charingId=90328,"121.545959,31.044094",闵行区,121.54169532928529,31.046336789152075
聚缘南庭-地下,上海市闵行区浦江镇闵驰一路29弄-聚缘南庭9号楼地下车库ST30-ST32车位号。,0,2,其他,不详,不详,不详,开放时间：周一至周日00:00-24:00,https://admin.bjev520.com/jsp/beiqi/pcmap/do/pcmap_Detail.jsp?charingId=90329,"121.546162,31.039830",闵行区,121.54189922811216,31.042075703373822
聚缘南庭-地面,上海市闵行区浦江镇闵驰一路29弄,0,10,其他,不详,不详,不详,开放时间：周一至周日00:00-24:00,https://admin.bjev520.com/jsp/beiqi/pcmap/do/pcmap_Detail.jsp?charingId=90330,"121.546197,31.040064",闵行区,121.5419343026316,31.042309643482408
聚缘中庭-地面,上海市闵行区浦江镇闵驰一路50弄,0,10,其他,不详,不详,不详,开放时间：周一至周日00:00-24:00,https://admin.bjev520.com/jsp/beiqi/pcmap/do/pcmap_Detail.jsp?charingId=90331,"121.545515,31.041520",闵行区,121.54125034376092,31.043763310986325
小上海新城,"上海市浦东新区川周公路4318弄5幢12号楼南侧	
",0,6,其他,不详,不详,不详,开放时间：周一至周日00:00-24:00,https://admin.bjev520.com/jsp/beiqi/pcmap/do/pcmap_Detail.jsp?charingId=90332,"121.579924,31.121920",浦东新区,121.57571984931667,31.12417046015345
滨浦新苑五村-地下A区,上海市闵行区浦雪南路366号地下车库.,0,13,其他,不详,不详,不详,开放时间：周一至周日00:00-24:00,https://admin.bjev520.com/jsp/beiqi/pcmap/do/pcmap_Detail.jsp?charingId=90333,"121.496511,31.066615",闵行区,121.49208105480415,31.068709142869597
滨浦新苑五村-地下B区,上海市闵行区浦雪南路366号地下车库,0,12,其他,不详,不详,不详,开放时间：周一至周日00:00-24:00,https://admin.bjev520.com/jsp/beiqi/pcmap/do/pcmap_Detail.jsp?charingId=90334,"121.496511,31.066615",闵行区,121.49208105480415,31.068709142869597
滨浦新苑七村A区,上海市闵行区浦雪南路369号地下车库,0,13,其他,不详,不详,不详,开放时间：周一至周日00:00-24:00,https://admin.bjev520.com/jsp/beiqi/pcmap/do/pcmap_Detail.jsp?charingId=90335,"121.494833,31.066535",闵行区,121.49039702788659,31.068624154917696
浦江瑞和城陆街区北,上海市闵行区鲁浩路160弄-10号楼北面入口地下车库东面64-71号停车位,0,12,其他,不详,不详,不详,开放时间：周一至周日00:00-24:00,https://admin.bjev520.com/jsp/beiqi/pcmap/do/pcmap_Detail.jsp?charingId=90336,"121.520191,31.031893",闵行区,121.51584830517055,31.03407726909674
金硕河畔东区,上海市闵行区浦连路388弄,0,6,其他,不详,不详,不详,开放时间：周一至周日00:00-24:00,https://admin.bjev520.com/jsp/beiqi/pcmap/do/pcmap_Detail.jsp?charingId=90337,"121.535922,31.055002",闵行区,121.53162858785353,31.057215021920015
浦江瑞和城陆街区南,上海市闵行区汇秋路16弄21号楼北侧地下车库,0,24,其他,不详,不详,不详,开放时间：周一至周日00:00-24:00,https://admin.bjev520.com/jsp/beiqi/pcmap/do/pcmap_Detail.jsp?charingId=90339,"121.522715,31.031369",闵行区,121.5183809548065,31.033560686842566
和丰苑,上海市普陀区交通路1517弄地下车库。,0,20,其他,不详,不详,不详,开放时间：周一至周日00:00-24:00,https://admin.bjev520.com/jsp/beiqi/pcmap/do/pcmap_Detail.jsp?charingId=90340,"121.444044,31.255911",普陀区,121.43943673768649,31.25777319416316
浦江瑞和城叁街区鲁宁路43弄,上海市闵行区鲁宁路43弄C区地下车库,0,6,其他,不详,不详,不详,开放时间：周一至周日00:00-24:00,https://admin.bjev520.com/jsp/beiqi/pcmap/do/pcmap_Detail.jsp?charingId=90342,"121.522563,31.020843",闵行区,121.51822931927482,31.023040412630223
浦江瑞和城叁街区汇臻路815弄,上海市闵行区汇臻路815弄1-35号地下车库E区,0,6,其他,不详,不详,不详,开放时间：周一至周日00:00-24:00,https://admin.bjev520.com/jsp/beiqi/pcmap/do/pcmap_Detail.jsp?charingId=90343,"121.525466,31.021395",闵行区,121.52114201850652,31.02360013248161
浦江瑞和城叁街区鲁宁路80弄,上海市闵行区鲁宁路80弄1-30号地下车库B区,0,8,其他,不详,不详,不详,开放时间：周一至周日00:00-24:00,https://admin.bjev520.com/jsp/beiqi/pcmap/do/pcmap_Detail.jsp?charingId=90344,"121.522840,31.020664",闵行区,121.51850727179746,31.022862291874834
永新城永新坊,上海市徐汇区辛耕路133号 。,0,7,其他,不详,不详,不详,开放时间：周一至周日00:00-24:00,https://admin.bjev520.com/jsp/beiqi/pcmap/do/pcmap_Detail.jsp?charingId=90345,"121.442545,31.192206",徐汇区,121.43794006571508,31.194095293486768
南部阳光翠庭,上海市松江区新松江路1111号,0,20,其他,不详,不详,不详,开放时间：周一至周日00:00-24:00,https://admin.bjev520.com/jsp/beiqi/pcmap/do/pcmap_Detail.jsp?charingId=90346,"121.214751,31.037841",松江区,121.21031996706552,31.039943760326082
万荣小区,上海市静安区彭越浦路800弄1号楼南侧地面停车场,0,20,其他,不详,不详,不详,开放时间：周一至周日00:00-24:00,https://admin.bjev520.com/jsp/beiqi/pcmap/do/pcmap_Detail.jsp?charingId=90348,"121.436317,31.284047",静安区,121.43169194476009,31.285884443117624
证一小区,上海市浦东新区巨峰路667弄停车场入口西侧东西两排新能源充电桩,0,24,其他,不详,不详,不详,开放时间：周一至周日00:00-24:00,https://admin.bjev520.com/jsp/beiqi/pcmap/do/pcmap_Detail.jsp?charingId=90349,"121.602928,31.280579",浦东新区,121.59872293766452,31.282758935475602
金海华城永华苑,上海市浦东新区龚华路35弄小区外停车场南面,0,6,其他,不详,不详,不详,开放时间：周一至周日00:00-24:00,https://admin.bjev520.com/jsp/beiqi/pcmap/do/pcmap_Detail.jsp?charingId=90350,"121.683939,31.270786",浦东新区,121.67962250040661,31.272855800600453
莘松三村,上海市闵行区莘沥路363弄,0,7,其他,不详,不详,不详,开放时间：周一至周日00:00-24:00,https://admin.bjev520.com/jsp/beiqi/pcmap/do/pcmap_Detail.jsp?charingId=90351,"121.370631,31.108988",闵行区,121.36601391732123,31.110905649189792
卓越时代公寓,上海市宝山区呼兰西路60号宝山卓越时代广场东南门旁停车位,0,12,其他,不详,不详,不详,开放时间：周一至周日00:00-24:00,https://admin.bjev520.com/jsp/beiqi/pcmap/do/pcmap_Detail.jsp?charingId=90352,"121.435808,31.337107",宝山区,121.43117741030505,31.338923454826016
海螺花园,上海市徐汇区宛平南路388弄-5号楼东侧,0,1,其他,不详,不详,不详,开放时间：周一至周日00:00-24:00,https://admin.bjev520.com/jsp/beiqi/pcmap/do/pcmap_Detail.jsp?charingId=90353,"121.446706,31.191055",徐汇区,121.44211029375411,31.192952500104397
池鑫苑,上海市浦东新区航头路1137弄-航头路西北门入口4号楼南侧新能源充电桩,0,10,其他,不详,不详,不详,开放时间：周一至周日00:00-24:00,https://admin.bjev520.com/jsp/beiqi/pcmap/do/pcmap_Detail.jsp?charingId=90354,"121.593255,31.032633",浦东新区,121.58906853131137,31.034940539806094
富鑫苑,上海市浦东新区航头路1257弄-小区5号楼南侧停车场,0,10,其他,不详,不详,不详,开放时间：周一至周日00:00-24:00,https://admin.bjev520.com/jsp/beiqi/pcmap/do/pcmap_Detail.jsp?charingId=90355,"121.590017,31.032418",浦东新区,121.58582887711393,31.034724804331695
海鑫苑,上海市浦东新区航头路1675号-小区28号楼北侧,0,11,其他,不详,不详,不详,开放时间：周一至周日00:00-24:00,https://admin.bjev520.com/jsp/beiqi/pcmap/do/pcmap_Detail.jsp?charingId=90356,"121.580000,31.030390",浦东新区,121.575803466688,31.032692336012392
聚鑫苑,上海市浦东新区航头路1027弄9号楼北侧,0,10,其他,不详,不详,不详,开放时间：周一至周日00:00-24:00,https://admin.bjev520.com/jsp/beiqi/pcmap/do/pcmap_Detail.jsp?charingId=90357,"121.595777,31.032539",浦东新区,121.59159147179206,31.034846940864917
双柏小区-117号楼北面,上海市闵行区剑川路100弄117号楼对面停车场,0,5,其他,不详,不详,不详,开放时间：周一至周日00:00-24:00,https://admin.bjev520.com/jsp/beiqi/pcmap/do/pcmap_Detail.jsp?charingId=90358,"121.472684,31.044434",闵行区,121.46817357142693,31.046472032924132
双柏小区-19号楼东面,上海市闵行区剑川路100弄19号楼东面墙壁,0,9,其他,不详,不详,不详,开放时间：周一至周日00:00-24:00,https://admin.bjev520.com/jsp/beiqi/pcmap/do/pcmap_Detail.jsp?charingId=90359,"121.472684,31.044434",闵行区,121.46817357142693,31.046472032924132
双柏小区-134号楼北面,上海市闵行区剑川路100弄-134号北面,0,9,其他,不详,不详,不详,开放时间：周一至周日00:00-24:00,https://admin.bjev520.com/jsp/beiqi/pcmap/do/pcmap_Detail.jsp?charingId=90360,"121.435402,31.032033",闵行区,121.43079716465287,31.033998225349045
双柏小区-126号楼北面,上海市闵行区剑川路100弄-126号楼北面停车场,0,5,其他,不详,不详,不详,开放时间：周一至周日00:00-24:00,https://admin.bjev520.com/jsp/beiqi/pcmap/do/pcmap_Detail.jsp?charingId=90361,"121.435402,31.032033",闵行区,121.43079716465287,31.033998225349045
听潮豪园,上海市浦东新区听潮南路46弄-东方听潮豪园东门门口北侧25号楼东面停车场,0,12,其他,不详,不详,不详,开放时间：周一至周日00:00-24:00,https://admin.bjev520.com/jsp/beiqi/pcmap/do/pcmap_Detail.jsp?charingId=90364,"121.740279,31.038288",浦东新区,121.73591751331172,31.04040721613684
共富二村三期,上海市宝山区联谊路350弄-83幢274号楼西侧停车场,0,7,其他,不详,不详,不详,开放时间：周一至周日00:00-24:00,https://admin.bjev520.com/jsp/beiqi/pcmap/do/pcmap_Detail.jsp?charingId=90365,"121.433351,31.345570",宝山区,121.42871546205083,31.347380007935005
绿波家园,上海市浦东新区三旋路506弄-小区11幢22-23号楼南面地库入口。,0,12,其他,不详,不详,不详,开放时间：周一至周日00:00-24:00,https://admin.bjev520.com/jsp/beiqi/pcmap/do/pcmap_Detail.jsp?charingId=90366,"121.601733,31.141809",浦东新区,121.59753942341129,31.1440553816062
平阳三街坊,上海市闵行区平阳路1375弄32号楼北面,0,20,其他,不详,不详,不详,开放时间：周一至周日00:00-24:00,https://admin.bjev520.com/jsp/beiqi/pcmap/do/pcmap_Detail.jsp?charingId=90367,"121.386640,31.134002",闵行区,121.3820029416191,31.135890796133356
恒盛豪庭二期,上海市宝山区恒高路128弄-9号楼西南侧停车场,0,12,其他,不详,不详,不详,开放时间：周一至周日00:00-24:00,https://admin.bjev520.com/jsp/beiqi/pcmap/do/pcmap_Detail.jsp?charingId=90368,"121.468706,31.325844",宝山区,121.46415877238641,31.327733321267395
信通浦皓园,上海市杨浦区兰州路1333弄5号楼西北方向停车场,0,4,其他,不详,不详,不详,开放时间：周一至周日00:00-24:00,https://admin.bjev520.com/jsp/beiqi/pcmap/do/pcmap_Detail.jsp?charingId=90369,"121.523026,31.271440",杨浦区,121.51867286546022,31.27350824957846
碧桂园玫瑰公馆,上海市金山区润兴路8弄30号-国网变电所东面地面停车位。,0,10,其他,不详,不详,不详,开放时间：周一至周日00:00-24:00,https://admin.bjev520.com/jsp/beiqi/pcmap/do/pcmap_Detail.jsp?charingId=90370,"121.080571,30.873110",金山区,121.07599599743098,30.875155964220387
天极盛宅花园,上海市宝山区富联路25弄-1幢/2幢楼南面停车位,0,9,其他,不详,不详,不详,开放时间：周一至周日00:00-24:00,https://admin.bjev520.com/jsp/beiqi/pcmap/do/pcmap_Detail.jsp?charingId=90371,"121.416119,31.352759",宝山区,121.41146209567296,31.354549358783743
新空间家园,上海市闵行区莘朱路633弄-小区7号楼南侧50-51号车位；19号楼北侧52-53号车位。,0,4,其他,不详,不详,不详,开放时间：周一至周日00:00-24:00,https://admin.bjev520.com/jsp/beiqi/pcmap/do/pcmap_Detail.jsp?charingId=90375,"121.394041,31.111107",闵行区,121.38940158284696,31.11300446237281
兴塔社区新苑小区管理委员会,上海市金山区兰兴路100弄-2216号北面停车场,0,6,其他,不详,不详,不详,开放时间：周一至周日00:00-24:00,https://admin.bjev520.com/jsp/beiqi/pcmap/do/pcmap_Detail.jsp?charingId=90376,"121.085216,30.876000",金山区,121.08063626968455,30.878041085168245
万科四季花城一期,上海市宝山区松兰路1068号-小区西门入口松兰路1168号北面,0,6,其他,不详,不详,不详,开放时间：周一至周日00:00-24:00,https://admin.bjev520.com/jsp/beiqi/pcmap/do/pcmap_Detail.jsp?charingId=90377,"121.443810,31.382783",宝山区,121.43919118856343,31.384597747888787
信达蓝庭,上海市宝山区潘新路255弄-小区北门国网变电所北面.,0,9,其他,不详,不详,不详,开放时间：周一至周日00:00-24:00,https://admin.bjev520.com/jsp/beiqi/pcmap/do/pcmap_Detail.jsp?charingId=90378,"121.331659,31.486187",宝山区,121.32708573205835,31.488024621204087
卓越世纪中心,上海市奉贤区望园南路1316弄-小区6号楼南区地库入口A19-A24号车位。,0,4,其他,不详,不详,不详,开放时间：周一至周日00:00-24:00,https://admin.bjev520.com/jsp/beiqi/pcmap/do/pcmap_Detail.jsp?charingId=90379,"121.490109,30.915501",奉贤区,121.48566892310718,30.91766480672547
虹梅景苑一街坊,上海市闵行区永德路700弄-43号楼南侧。,0,6,其他,不详,不详,不详,开放时间：周一至周日00:00-24:00,https://admin.bjev520.com/jsp/beiqi/pcmap/do/pcmap_Detail.jsp?charingId=90380,"121.453397,31.043281",闵行区,121.44883031183672,31.045272462350635
紫堤坊,上海市闵行区纪翟路99弄-小区20号楼北侧。,0,6,其他,不详,不详,不详,开放时间：周一至周日00:00-24:00,https://admin.bjev520.com/jsp/beiqi/pcmap/do/pcmap_Detail.jsp?charingId=90381,"121.296447,31.206978",闵行区,121.29197375957412,31.20897281223358
吉园坊,上海市区浦东新区宣黄公路2588弄---小区9幢24-25号东面地面车位,0,5,其他,不详,不详,不详,开放时间：周一至周日00:00-24:00,https://admin.bjev520.com/jsp/beiqi/pcmap/do/pcmap_Detail.jsp?charingId=90383,"121.737787,31.024597",浦东新区,121.73342707719277,31.026725265998113
瑞生花园,上海市闵行区保乐路368弄----东南门外西侧地面车位,0,6,其他,不详,不详,不详,开放时间：周一至周日00:00-24:00,https://admin.bjev520.com/jsp/beiqi/pcmap/do/pcmap_Detail.jsp?charingId=90384,"121.286322,31.204907",闵行区,121.28186637911007,31.20691711481267
华谊禄丰苑,上海市嘉定区澄浏中路与申霞路交汇处----小区1号楼北侧停车场,0,6,其他,不详,不详,不详,开放时间：周一至周日00:00-24:00,https://admin.bjev520.com/jsp/beiqi/pcmap/do/pcmap_Detail.jsp?charingId=90385,"121.283483,31.370594",嘉定区,121.2790175916272,31.372540794261674
京浦花园小区,上海市闵行区沧源路755弄-小区65号楼北侧地面车位变电站东侧3台/北侧3台。,0,6,其他,不详,不详,不详,开放时间：周一至周日00:00-24:00,https://admin.bjev520.com/jsp/beiqi/pcmap/do/pcmap_Detail.jsp?charingId=90388,"121.430508,31.015514",闵行区,121.42589663249798,31.017482231173705
金榜五期小区,上海市闵行区沧源路655弄-17号楼北侧地面停车场,0,6,其他,不详,不详,不详,开放时间：周一至周日00:00-24:00,https://admin.bjev520.com/jsp/beiqi/pcmap/do/pcmap_Detail.jsp?charingId=90389,"121.430675,31.012654",闵行区,121.42606413078103,31.014624120244157
宣桥枫庭,上海市浦东新区人民西路1955弄-小区26号楼西侧地面停车位。,0,6,其他,不详,不详,不详,开放时间：周一至周日00:00-24:00,https://admin.bjev520.com/jsp/beiqi/pcmap/do/pcmap_Detail.jsp?charingId=90390,"121.718673,31.048250",浦东新区,121.71432290906749,31.050380012172614
吉宝汇锦城三期,上海市浦东新区新环北路1080弄-小区3幢6号北面地面车位。,0,6,其他,不详,不详,不详,开放时间：周一至周日00:00-24:00,https://admin.bjev520.com/jsp/beiqi/pcmap/do/pcmap_Detail.jsp?charingId=90391,"121.638859,31.032503",浦东新区,121.63464470358383,31.034777580418922
唐家苑南区,上海市嘉定区茂华路50弄---小区3号楼西北侧地面停车场40-45号车位,0,6,其他,不详,不详,不详,开放时间：周一至周日00:00-24:00,https://admin.bjev520.com/jsp/beiqi/pcmap/do/pcmap_Detail.jsp?charingId=90392,"121.283769,31.372680",嘉定区,121.27930298934457,31.374625801414172
唐家苑北区,上海市嘉定区叶城东路350弄-小区3号楼南侧地面停车场155-160号车位。,0,5,其他,不详,不详,不详,开放时间：周一至周日00:00-24:00,https://admin.bjev520.com/jsp/beiqi/pcmap/do/pcmap_Detail.jsp?charingId=90393,"121.282267,31.376310",嘉定区,121.27780287518624,31.378256456210497
唐家苑中区,上海市嘉定区叶城东路363弄-小区4号楼东侧地面车位101-106号车位,0,6,其他,不详,不详,不详,开放时间：周一至周日00:00-24:00,https://admin.bjev520.com/jsp/beiqi/pcmap/do/pcmap_Detail.jsp?charingId=90394,"121.283591,31.374790",嘉定区,121.27912507333932,31.37673536296196
丽都城假日景苑E区,上海市闵行区金平路328弄-小区52幢126-127号楼东面地面400-405车位,0,6,其他,不详,不详,不详,开放时间：周一至周日00:00-24:00,https://admin.bjev520.com/jsp/beiqi/pcmap/do/pcmap_Detail.jsp?charingId=90395,"121.408226,31.013094",闵行区,121.40359442992366,31.01504671791853
浦秀馨苑-38号楼北侧,上海市闵行区 浦秀路1139弄-38号楼北侧地面停车位,0,3,其他,不详,不详,不详,开放时间：周一至周日00:00-24:00,https://admin.bjev520.com/jsp/beiqi/pcmap/do/pcmap_Detail.jsp?charingId=90396,"121.491751,31.088750",闵行区,121.48730210950791,31.090817359388815
浦锦街道文体中心,上海市闵行区浦锦路400号-东南角地面停车场。,0,2,其他,不详,不详,不详,开放时间：周一至周日00:00-24:00,https://admin.bjev520.com/jsp/beiqi/pcmap/do/pcmap_Detail.jsp?charingId=90397,"121.498928,31.078148",闵行区,121.49450579163407,31.080242846821978
浦恒馨苑-14号楼南侧,上海市闵行区浦锦路2159弄-小区14号楼南侧地面车位475-483号车位,0,5,其他,不详,不详,不详,开放时间：周一至周日00:00-24:00,https://admin.bjev520.com/jsp/beiqi/pcmap/do/pcmap_Detail.jsp?charingId=90398,"121.483819,31.113395",闵行区,121.47934006558211,31.115425325665093
浦恒馨苑-44号楼西侧,上海市闵行区浦锦路2159弄-小区44号楼西侧地面车位360-369号车位。,0,5,其他,不详,不详,不详,开放时间：周一至周日00:00-24:00,https://admin.bjev520.com/jsp/beiqi/pcmap/do/pcmap_Detail.jsp?charingId=90399,"121.483819,31.113395",闵行区,121.47934006558211,31.115425325665093
浦恒馨苑-19号楼西侧,上海市闵行区浦锦路2159弄-小区19号楼西侧地面车位,0,4,其他,不详,不详,不详,开放时间：周一至周日00:00-24:00,https://admin.bjev520.com/jsp/beiqi/pcmap/do/pcmap_Detail.jsp?charingId=90400,"121.483819,31.113395",闵行区,121.47934006558211,31.115425325665093
浦恒馨苑-12号楼南侧,上海市闵行区浦锦路2159弄-小区12号楼南侧地面车位173-182号车位。,0,3,其他,不详,不详,不详,开放时间：周一至周日00:00-24:00,https://admin.bjev520.com/jsp/beiqi/pcmap/do/pcmap_Detail.jsp?charingId=90401,"121.483819,31.113395",闵行区,121.47934006558211,31.115425325665093
水岸新郡南区,上海市浦东新区祖冲之路2201弄-小区5号楼北侧地面停车场,0,6,其他,不详,不详,不详,开放时间：周一至周日00:00-24:00,https://admin.bjev520.com/jsp/beiqi/pcmap/do/pcmap_Detail.jsp?charingId=90403,"121.624295,31.211834",浦东新区,121.62008409612919,31.214030558348945
浦秀馨苑-16号楼北侧,上海市闵行区浦秀路1139弄--小区16号楼北侧地面停车位。,0,5,其他,不详,不详,不详,开放时间：周一至周日00:00-24:00,https://admin.bjev520.com/jsp/beiqi/pcmap/do/pcmap_Detail.jsp?charingId=90404,"121.489837,31.086424",闵行区,121.48538149392728,31.08848697787122
佳兆业8号,上海市奉贤区矩庭路99弄-小区34幢北侧地下车库入口-80-85号停车位。,0,6,其他,不详,不详,不详,开放时间：周一至周日00:00-24:00,https://admin.bjev520.com/jsp/beiqi/pcmap/do/pcmap_Detail.jsp?charingId=90405,"121.419094,30.905355",奉贤区,121.41447838931823,30.9073769136457
密山二村西块,上海市宝山区 密山路密山二村西块--小区7号楼北侧地面停车场69-74号车位。,0,4,其他,不详,不详,不详,开放时间：周一至周日00:00-24:00,https://admin.bjev520.com/jsp/beiqi/pcmap/do/pcmap_Detail.jsp?charingId=90406,"121.484599,31.402365",宝山区,121.48009803274685,31.404273916276434
密山二村东块,上海市宝山区密山路密山二村东块-小区64-67号楼南面地面停车位63-66号车位,0,6,其他,不详,不详,不详,开放时间：周一至周日00:00-24:00,https://admin.bjev520.com/jsp/beiqi/pcmap/do/pcmap_Detail.jsp?charingId=90407,"121.487318,31.403210",宝山区,121.482826508215,31.405126637997565
柳明公寓,上海市闵行区莘松路577弄-5号楼南侧地面停车场,0,6,其他,不详,不详,不详,开放时间：周一至周日00:00-24:00,https://admin.bjev520.com/jsp/beiqi/pcmap/do/pcmap_Detail.jsp?charingId=90408,"121.366226,31.105105",闵行区,121.36161592820626,31.10703048045952
南新西园,上海市浦东新区行南路1150弄-小区15幢33-34号楼北侧地库入口-地库东面72-83号车位,0,5,其他,不详,不详,不详,开放时间：周一至周日00:00-24:00,https://admin.bjev520.com/jsp/beiqi/pcmap/do/pcmap_Detail.jsp?charingId=90409,"121.582406,31.327876",浦东新区,121.57818743011707,31.330033021755995
南新东园,上海市浦东新区行南路900弄--小区11幢26-27号楼北侧地库入口-地库北侧122-133号车位，,0,9,其他,不详,不详,不详,开放时间：周一至周日00:00-24:00,https://admin.bjev520.com/jsp/beiqi/pcmap/do/pcmap_Detail.jsp?charingId=90410,"121.587902,31.330226",浦东新区,121.58368791275224,31.33238523566156
果园小区,上海市奉贤区沪杭公路397弄-小区46号楼西侧地面停车场 ,0,6,其他,不详,不详,不详,开放时间：周一至周日00:00-24:00,https://admin.bjev520.com/jsp/beiqi/pcmap/do/pcmap_Detail.jsp?charingId=90411,"121.435450,30.984989",奉贤区,121.4308493038857,30.98698194920428
绿地方舟,上海市奉贤区运河北路258弄-地下车库96-98号车位,0,2,其他,不详,不详,不详,开放时间：周一至周日00:00-24:00,https://admin.bjev520.com/jsp/beiqi/pcmap/do/pcmap_Detail.jsp?charingId=90412,"121.434288,30.919209",奉贤区,121.42969096287945,30.921239249160884
绿地智尊,上海市奉贤区奉浦大道97弄-地面车位116-119号车位,0,2,其他,不详,不详,不详,开放时间：周一至周日00:00-24:00,https://admin.bjev520.com/jsp/beiqi/pcmap/do/pcmap_Detail.jsp?charingId=90413,"121.466744,30.942501",奉贤区,121.46222360541134,30.94458343661724
浦江宝坻三期（西区）,上海市闵行区江文路201弄-小区10号楼西侧地库入口-346-351号停车位,0,6,其他,不详,不详,不详,开放时间：周一至周日00:00-24:00,https://admin.bjev520.com/jsp/beiqi/pcmap/do/pcmap_Detail.jsp?charingId=90415,"121.541395,31.062235",闵行区,121.53711715002576,31.064457053110047
徐泾北城欣乐苑,上海市青浦区凤坚塘路65弄-小区10号楼西北侧地面停车场,0,6,其他,不详,不详,不详,开放时间：周一至周日00:00-24:00,https://admin.bjev520.com/jsp/beiqi/pcmap/do/pcmap_Detail.jsp?charingId=90416,"121.238351,31.185482",青浦区,121.23392755963967,31.18752380589223
泰和新城（西区）,上海市宝山区泰和西路3463弄-小区59-62号楼北侧地面停车位,0,4,其他,不详,不详,不详,开放时间：周一至周日00:00-24:00,https://admin.bjev520.com/jsp/beiqi/pcmap/do/pcmap_Detail.jsp?charingId=90417,"121.405387,31.350134",宝山区,121.40072538864716,31.351921235585692
世华佳苑,上海市宝山区杨鑫路451弄49号楼附近-小区50号楼南侧地面车位ST01-ST04,0,4,其他,不详,不详,不详,开放时间：周一至周日00:00-24:00,https://admin.bjev520.com/jsp/beiqi/pcmap/do/pcmap_Detail.jsp?charingId=90418,"121.435014,31.366977",宝山区,121.43037940873809,31.368782296561207
天星苑,上海市闵行区东川路3533弄-小区1幢1-2号北面地面停车场。,0,6,其他,不详,不详,不详,开放时间：周一至周日00:00-24:00,https://admin.bjev520.com/jsp/beiqi/pcmap/do/pcmap_Detail.jsp?charingId=90419,"121.371488,31.000232",闵行区,121.36687909172117,31.002211014804132
康敏苑(东区),"上海市浦东新区靖海南路488弄-小区1幢1-2号楼北侧地库入口-地库106,109-113号车位。",0,6,其他,不详,不详,不详,开放时间：周一至周日00:00-24:00,https://admin.bjev520.com/jsp/beiqi/pcmap/do/pcmap_Detail.jsp?charingId=90421,"121.768159,31.036039",浦东新区,121.76381184230543,31.038163520078093
绿地南桥新苑一期,上海市奉贤区环城东路885弄-小区23号楼北侧地面停车场,0,3,其他,不详,不详,不详,开放时间：周一至周日00:00-24:00,https://admin.bjev520.com/jsp/beiqi/pcmap/do/pcmap_Detail.jsp?charingId=90422,"121.470012,30.928033",奉贤区,121.46550297190058,30.930132510611145
虹梅新苑（北区）,上海市闵行区永德路360弄-小区9号楼南侧地面停车场,0,6,其他,不详,不详,不详,开放时间：周一至周日00:00-24:00,https://admin.bjev520.com/jsp/beiqi/pcmap/do/pcmap_Detail.jsp?charingId=90423,"121.456875,31.042315",闵行区,121.4523175805116,31.044314723327506
宝钢八村,上海市宝山区盘古路宝钢八村54号-小区44幢91-93号楼东侧地面停车位,0,6,其他,不详,不详,不详,开放时间：周一至周日00:00-24:00,https://admin.bjev520.com/jsp/beiqi/pcmap/do/pcmap_Detail.jsp?charingId=90424,"121.478020,31.407399",宝山区,121.47349601539821,31.409287723778174
邮电金桥新村,上海市浦东新区张杨北路512弄-小区27号楼西侧ST01-ST06号车位。,0,6,其他,不详,不详,不详,开放时间：周一至周日00:00-24:00,https://admin.bjev520.com/jsp/beiqi/pcmap/do/pcmap_Detail.jsp?charingId=90427,"121.587727,31.265018",浦东新区,121.58351819341803,31.267202935031605
碧林湾小区,上海市闵行区中谊路888 -小区外802商铺南侧地面停车场内。,0,8,其他,不详,不详,不详,开放时间：周一至周日00:00-24:00,https://admin.bjev520.com/jsp/beiqi/pcmap/do/pcmap_Detail.jsp?charingId=90428,"121.353163,31.140608",闵行区,121.34857327036141,31.142534081741466
西郊虹韵城景平苑,上海市闵行区繁兴路1000弄---小区2幢3-5号楼南侧地面车位,0,5,其他,不详,不详,不详,开放时间：周一至周日00:00-24:00,https://admin.bjev520.com/jsp/beiqi/pcmap/do/pcmap_Detail.jsp?charingId=90429,"121.290155,31.220081",闵行区,121.28569184080463,31.222078763844493
紫晶南园二期,上海市闵行区广南路666弄---小区205号楼西侧地面停车场61-66号车位,0,5,其他,不详,不详,不详,开放时间：周一至周日00:00-24:00,https://admin.bjev520.com/jsp/beiqi/pcmap/do/pcmap_Detail.jsp?charingId=90431,"121.463257,31.036962",闵行区,121.4587180850353,31.038979959963434
北欧丽景,上海市闵行区沧源路755弄-小区172号楼西侧地面车位4台，小区162号楼西侧地面车位2台。,0,6,其他,不详,不详,不详,开放时间：周一至周日00:00-24:00,https://admin.bjev520.com/jsp/beiqi/pcmap/do/pcmap_Detail.jsp?charingId=90434,"121.430508,31.015514",闵行区,121.42589663249798,31.017482231173705
三明花园小区,上海市闵行区沧源路755弄-小区92号楼东侧地面车位,0,6,其他,不详,不详,不详,开放时间：周一至周日00:00-24:00,https://admin.bjev520.com/jsp/beiqi/pcmap/do/pcmap_Detail.jsp?charingId=90435,"121.430508,31.015514",闵行区,121.42589663249798,31.017482231173705
临港海滨国际花园,上海市浦东新区芦安路116弄-小区60号东北侧地面车位ST01-ST06号车位。 ,0,6,其他,不详,不详,不详,开放时间：周一至周日00:00-24:00,https://admin.bjev520.com/jsp/beiqi/pcmap/do/pcmap_Detail.jsp?charingId=90436,"121.860342,30.866602",浦东新区,121.85620959993125,30.868969931992407
万科·金色公馆-4幢4单元西南侧,上海市浦东新区济阳路333弄-万科·金色公馆-4幢4单元西南侧地面车位ST04-ST06。,0,3,其他,不详,不详,不详,开放时间：周一至周日00:00-24:00,https://admin.bjev520.com/jsp/beiqi/pcmap/do/pcmap_Detail.jsp?charingId=90437,"121.483084,31.160953",浦东新区,121.47859846432173,31.16295578789531
正泰科沁苑,上海市松江区思贤路3255弄-小区42幢52单元楼西侧地面停车场。,0,6,其他,不详,不详,不详,开放时间：周一至周日00:00-24:00,https://admin.bjev520.com/jsp/beiqi/pcmap/do/pcmap_Detail.jsp?charingId=90438,"121.173619,31.021845",松江区,121.16911638324879,31.023889376930793
桃园新城汇枫公寓,上海市浦东新区康沈路3001弄-小区3幢11号楼西侧地面停车场。,0,6,其他,不详,不详,不详,开放时间：周一至周日00:00-24:00,https://admin.bjev520.com/jsp/beiqi/pcmap/do/pcmap_Detail.jsp?charingId=90439,"121.582981,31.090241",浦东新区,121.57878263705179,31.09251118557476
颛溪七村,上海市闵行区颛兴路358弄---小区12-14号楼北侧地面停车场。,0,4,其他,不详,不详,不详,开放时间：周一至周日00:00-24:00,https://admin.bjev520.com/jsp/beiqi/pcmap/do/pcmap_Detail.jsp?charingId=90440,"121.393602,31.066399",闵行区,121.3889666427364,31.068321709984435
万乐城（莲花3999弄）,上海市闵行区莲花3999弄---满天星生活广场地下车库274-279号车位。,0,6,其他,不详,不详,不详,开放时间：周一至周日00:00-24:00,https://admin.bjev520.com/jsp/beiqi/pcmap/do/pcmap_Detail.jsp?charingId=90441,"121.387108,31.025478",闵行区,121.38247999067262,31.027427681035924
莎海苑,上海市浦东新区靖海路178弄-小区3-7号楼北侧地面车位,0,6,其他,不详,不详,不详,开放时间：周一至周日00:00-24:00,https://admin.bjev520.com/jsp/beiqi/pcmap/do/pcmap_Detail.jsp?charingId=90442,"121.769113,31.047798",浦东新区,121.76476593859012,31.04991634443375
馨佳园三街坊,上海市宝山区菊泉街1596弄-小区48号楼西侧地面车位,0,6,其他,不详,不详,不详,开放时间：周一至周日00:00-24:00,https://admin.bjev520.com/jsp/beiqi/pcmap/do/pcmap_Detail.jsp?charingId=90443,"121.367147,31.366699",宝山区,121.36251275242674,31.368505600175883
淞青路68弄,上海市宝山区淞青路68弄---小区8-9号楼北侧地面停车场,0,6,其他,不详,不详,不详,开放时间：周一至周日00:00-24:00,https://admin.bjev520.com/jsp/beiqi/pcmap/do/pcmap_Detail.jsp?charingId=90446,"121.499658,31.389644",宝山区,121.49521194921589,31.391601289267804
碧水濠庭,上海市嘉定区外青松公路199弄-小区30号楼北侧地面停车位06号车位-11号车位,0,6,其他,不详,不详,不详,开放时间：周一至周日00:00-24:00,https://admin.bjev520.com/jsp/beiqi/pcmap/do/pcmap_Detail.jsp?charingId=90447,"121.176640,31.358655",嘉定区,121.1721147792891,31.360542498943747
莲浦新苑,上海市闵行区名都路58弄-小区大门外东侧地面车位,0,3,其他,不详,不详,不详,开放时间：周一至周日00:00-24:00,https://admin.bjev520.com/jsp/beiqi/pcmap/do/pcmap_Detail.jsp?charingId=90449,"121.389942,31.107139",闵行区,121.38530500840562,31.109040464980563
金桥新家园,上海市浦东新区金工路133弄-小区11号楼西侧地面停车场,0,6,其他,不详,不详,不详,开放时间：周一至周日00:00-24:00,https://admin.bjev520.com/jsp/beiqi/pcmap/do/pcmap_Detail.jsp?charingId=90450,"121.587554,31.256139",浦东新区,121.58334580349312,31.25832770850791
淞南七村,上海市宝山区淞南七村-小区14幢65-68号北侧地面车位,0,6,其他,不详,不详,不详,开放时间：周一至周日00:00-24:00,https://admin.bjev520.com/jsp/beiqi/pcmap/do/pcmap_Detail.jsp?charingId=90451,"121.498657,31.396025",宝山区,121.49420677967665,31.397977452312876
逸兴家园,上海市宝山区逸仙路3456弄-小区57号楼北侧地面车位ST01-ST06号车位,0,6,其他,不详,不详,不详,开放时间：周一至周日00:00-24:00,https://admin.bjev520.com/jsp/beiqi/pcmap/do/pcmap_Detail.jsp?charingId=90452,"121.499742,31.347688",宝山区,121.4952998372679,31.349658766428742
万联汽修厂,上海市宝山区沪太路5557号-万联汽修厂车间内车位。,0,2,其他,不详,不详,不详,开放时间：周一至周日00:00-24:00,https://admin.bjev520.com/jsp/beiqi/pcmap/do/pcmap_Detail.jsp?charingId=90453,"121.326912,31.452983",宝山区,121.3223524450135,31.454836045171284
佳宝新村,上海市闵行区沪松公路62弄--佳宝二村小区28号楼北侧地面车位ST01-ST06,0,6,其他,不详,不详,不详,开放时间：周一至周日00:00-24:00,https://admin.bjev520.com/jsp/beiqi/pcmap/do/pcmap_Detail.jsp?charingId=90455,"121.347077,31.154372",闵行区,121.3424984682771,31.15630130606564
华亭荣园,上海市松江区荣乐西路600-小区33号楼西北侧地面停车场。,0,6,其他,不详,不详,不详,开放时间：周一至周日00:00-24:00,https://admin.bjev520.com/jsp/beiqi/pcmap/do/pcmap_Detail.jsp?charingId=90456,"121.199245,31.019357",松江区,121.19479200023446,31.021448515696786
佳兆业壹号（尚品雅苑）,上海市嘉定区康丰路201弄-小区2单元南侧地面车位ST01-ST06,0,6,其他,不详,不详,不详,开放时间：周一至周日00:00-24:00,https://admin.bjev520.com/jsp/beiqi/pcmap/do/pcmap_Detail.jsp?charingId=90457,"121.272945,31.321797",嘉定区,121.26849733194395,31.323771291017042
逸兴公寓,上海市宝山区逸仙路3508弄-小区4号楼北侧地面车位ST01-ST06号车位,0,6,其他,不详,不详,不详,开放时间：周一至周日00:00-24:00,https://admin.bjev520.com/jsp/beiqi/pcmap/do/pcmap_Detail.jsp?charingId=90458,"121.500880,31.348969",宝山区,121.49644184756096,31.350942754276996
宝林一村西区,上海市宝山区宝林路107号-小区44幢109-110号楼南侧地面车位ST01-ST06号车位。,0,6,其他,不详,不详,不详,开放时间：周一至周日00:00-24:00,https://admin.bjev520.com/jsp/beiqi/pcmap/do/pcmap_Detail.jsp?charingId=90461,"121.480737,31.399220",宝山区,121.4762229475035,31.401118654486158
宝林四村,上海市宝山区密山东路东林路-小区16号楼北侧地面车位ST01-ST06号车位,0,6,其他,不详,不详,不详,开放时间：周一至周日00:00-24:00,https://admin.bjev520.com/jsp/beiqi/pcmap/do/pcmap_Detail.jsp?charingId=90462,"121.492815,31.406987",宝山区,121.48834276736282,31.40891891227697
密山路500弄,上海市宝山区密山路-小区3幢楼北侧地面车位ST01-ST06,0,6,其他,不详,不详,不详,开放时间：周一至周日00:00-24:00,https://admin.bjev520.com/jsp/beiqi/pcmap/do/pcmap_Detail.jsp?charingId=90463,"121.484116,31.402752",宝山区,121.47961331500153,31.404659406569344
南新西园（加桩）,上海市浦东新区行南路1150弄地下车库-小区15幢33-34号楼北侧地库入口-地库东面72-83号车,0,4,其他,不详,不详,不详,开放时间：周一至周日00:00-24:00,https://admin.bjev520.com/jsp/beiqi/pcmap/do/pcmap_Detail.jsp?charingId=90465,"121.582406,31.327876",浦东新区,121.57818743011707,31.330033021755995
馨越公寓I,上海市普陀区千阳南路99弄馨越公寓越公寓地下停车库 ,0,15,其他,不详,不详,不详,开放时间：周一至周日00:00-24:00,https://admin.bjev520.com/jsp/beiqi/pcmap/do/pcmap_Detail.jsp?charingId=90466,"121.364549,31.229757",普陀区,121.35993085087824,31.231620991848196
保利·叶上海（北区）,上海市宝山区菊太路1198弄--小区西南门外地面车位ST01-ST04。,0,4,其他,不详,不详,不详,开放时间：周一至周日00:00-24:00,https://admin.bjev520.com/jsp/beiqi/pcmap/do/pcmap_Detail.jsp?charingId=90469,"121.358527,31.346303",宝山区,121.35390922880411,31.348128784838032
保利·叶上海中区,上海市宝山区联杨路1078弄1-13号-小区8号楼东侧地面车位108-113号车位。,0,6,其他,不详,不详,不详,开放时间：周一至周日00:00-24:00,https://admin.bjev520.com/jsp/beiqi/pcmap/do/pcmap_Detail.jsp?charingId=90470,"121.354552,31.345265",宝山区,121.34994182666732,31.34709749550295
保利·林语溪,上海市浦东新区秀沿西路68弄-小区150号楼西侧地面车位ST01-ST06。 ,0,6,其他,不详,不详,不详,开放时间：周一至周日00:00-24:00,https://admin.bjev520.com/jsp/beiqi/pcmap/do/pcmap_Detail.jsp?charingId=90471,"121.537304,31.131437",浦东新区,121.53300839907986,31.133610738029407
保利·西子湾,上海市松江区广富林路1188弄-保利西子湾风情街地下车库236-241号车位。,0,6,其他,不详,不详,不详,开放时间：周一至周日00:00-24:00,https://admin.bjev520.com/jsp/beiqi/pcmap/do/pcmap_Detail.jsp?charingId=90472,"121.234833,31.058330",松江区,121.23041869425124,31.060438940364605
保利·叶语东区,上海市宝山区宝菊路22弄-小区138号354-359号车位。,0,6,其他,不详,不详,不详,开放时间：周一至周日00:00-24:00,https://admin.bjev520.com/jsp/beiqi/pcmap/do/pcmap_Detail.jsp?charingId=90473,"121.368115,31.345011",宝山区,121.36348114627589,31.346823488029464
舒乐公寓,上海市徐汇区罗秀路717弄-1号楼南侧ST01-ST06。,0,6,其他,不详,不详,不详,开放时间：周一至周日00:00-24:00,https://admin.bjev520.com/jsp/beiqi/pcmap/do/pcmap_Detail.jsp?charingId=90479,"121.435023,31.130935",徐汇区,121.43040895601303,31.132843953722187
沪光路中心村,上海市闵行区沪光路180弄-小区22号楼西侧地面车位ST01-ST06。,0,4,其他,不详,不详,不详,开放时间：周一至周日00:00-24:00,https://admin.bjev520.com/jsp/beiqi/pcmap/do/pcmap_Detail.jsp?charingId=90480,"121.416192,31.079502",闵行区,121.4115589521782,31.0814198460586
鸿福新村,上海市闵行区同乐路151弄-小区33号东侧125-130号车位。,0,6,其他,不详,不详,不详,开放时间：周一至周日00:00-24:00,https://admin.bjev520.com/jsp/beiqi/pcmap/do/pcmap_Detail.jsp?charingId=90481,"121.418628,31.124295",闵行区,121.41399305053262,31.12618964283207
礼尚路222弄A4地块地下室-1层,上海市普陀区礼尚路222弄A4地块地下室-1层,0,72,其他,不详,不详,不详,开放时间：周一至周日00:00-24:00,https://admin.bjev520.com/jsp/beiqi/pcmap/do/pcmap_Detail.jsp?charingId=90483,"121.408603,31.255224",普陀区,121.40395052113153,31.257048838376505
漕河泾聚鑫园,上海市徐汇区平福路188弄-企业园区地库B293-B296号车位以及B298-B299号车位。 ,0,6,其他,不详,不详,不详,开放时间：周一至周日00:00-24:00,https://admin.bjev520.com/jsp/beiqi/pcmap/do/pcmap_Detail.jsp?charingId=90484,"121.448986,31.137307",徐汇区,121.44440027152773,31.13923669015382
今天花园,上海市闵行区贵都路209弄-小区6号楼南侧地面车位ST01-ST06。,0,6,其他,不详,不详,不详,开放时间：周一至周日00:00-24:00,https://admin.bjev520.com/jsp/beiqi/pcmap/do/pcmap_Detail.jsp?charingId=90491,"121.403096,31.076622",闵行区,121.39845795947147,31.07853723733416
君莲新城中城苑,上海市闵行区春都路75弄-46号西侧地面车位201-206车位。 ,0,6,其他,不详,不详,不详,开放时间：周一至周日00:00-24:00,https://admin.bjev520.com/jsp/beiqi/pcmap/do/pcmap_Detail.jsp?charingId=90492,"121.420106,31.082703",闵行区,121.41547601455204,31.084621802648407
礼尚路222弄A4地块地下室-2层,上海市普陀区礼尚路222弄A4地块地下室-2层,0,5,其他,不详,不详,不详,开放时间：周一至周日00:00-24:00,https://admin.bjev520.com/jsp/beiqi/pcmap/do/pcmap_Detail.jsp?charingId=90493,"121.408603,31.255224",普陀区,121.40395052113153,31.257048838376505
上海市普陀真如副中心A3地块项目,上海市普陀区曹杨路1560号A3地块地下室-3层,0,62,其他,不详,不详,不详,开放时间：周一至周日00:00-24:00,https://admin.bjev520.com/jsp/beiqi/pcmap/do/pcmap_Detail.jsp?charingId=90494,"121.407737,31.254082",普陀区,121.40308434210564,31.255907117524842
上海市普陀真如副中心A5地块2期、3期项目,上海市普陀区真如副中心A5地块2期、3期项目地下车库-3层,0,49,其他,不详,不详,不详,开放时间：周一至周日00:00-24:00,https://admin.bjev520.com/jsp/beiqi/pcmap/do/pcmap_Detail.jsp?charingId=90495,,,,
昆阳新村,上海市闵行区昆阳路420弄-小区46号西侧201-206车位 ,0,6,其他,不详,不详,不详,开放时间：周一至周日00:00-24:00,https://admin.bjev520.com/jsp/beiqi/pcmap/do/pcmap_Detail.jsp?charingId=90497,"121.374218,30.997022",闵行区,121.36960568225108,30.99899975799438
吉宝汇锦城三期-6号楼北侧,上海市浦东新区新环北路1080弄-小区6号楼北侧地面车位65号车位-70号车位。 ,0,6,其他,不详,不详,不详,开放时间：周一至周日00:00-24:00,https://admin.bjev520.com/jsp/beiqi/pcmap/do/pcmap_Detail.jsp?charingId=90502,"121.638859,31.032503",浦东新区,121.63464470358383,31.034777580418922
保利·叶上海（西区）,上海市宝山区菊联路262弄-小区179号楼南侧地面36-37号车位 ,0,2,其他,不详,不详,不详,开放时间：周一至周日00:00-24:00,https://admin.bjev520.com/jsp/beiqi/pcmap/do/pcmap_Detail.jsp?charingId=90503,"121.352612,31.343344",宝山区,121.34800580241378,31.34518037727392
银康苑,上海市闵行区银林路100弄 -小区6号楼西北侧33-37号车位。,0,5,其他,不详,不详,不详,开放时间：周一至周日00:00-24:00,https://admin.bjev520.com/jsp/beiqi/pcmap/do/pcmap_Detail.jsp?charingId=90505,"121.388565,31.021039",闵行区,121.38393634515192,31.02299038700097
上海沪纺大厦有限公司,上海市静安区陕西北路670号-沪纺大厦一层停车场,0,1,其他,不详,不详,不详,开放时间：周一至周日00:00-24:00,https://admin.bjev520.com/jsp/beiqi/pcmap/do/pcmap_Detail.jsp?charingId=90506,"121.451198,31.233809",静安区,121.44660931758325,31.235695045467352
蒲汇新村（北区）,上海市闵行区青年路88弄-小区7号楼北面停车场ST01-ST06号车位。,0,6,其他,不详,不详,不详,开放时间：周一至周日00:00-24:00,https://admin.bjev520.com/jsp/beiqi/pcmap/do/pcmap_Detail.jsp?charingId=90523,"121.356120,31.156097",闵行区,121.3515232167286,31.1580100698006
创异工房,上海市松江区洞库路155号-创异工房消防控制室东侧地面停车位ST01-ST03。,0,3,其他,不详,不详,不详,开放时间：周一至周日00:00-24:00,https://admin.bjev520.com/jsp/beiqi/pcmap/do/pcmap_Detail.jsp?charingId=90524,"121.259473,31.091454",松江区,121.2550558407287,31.09354642037242
普陀真如副中心A4地块地下空间 （公共绿地地下停车库）,上海市普陀区礼尚路222弄A4地块地下室B2层,0,5,其他,不详,不详,不详,开放时间：周一至周日00:00-24:00,https://admin.bjev520.com/jsp/beiqi/pcmap/do/pcmap_Detail.jsp?charingId=90529,"121.408603,31.255224",普陀区,121.40395052113153,31.257048838376505
宝钢七村小区,上海市宝山区盘古路-宝钢七村小区44号楼北侧地面车位ST01-ST06。,0,6,其他,不详,不详,不详,开放时间：周一至周日00:00-24:00,https://admin.bjev520.com/jsp/beiqi/pcmap/do/pcmap_Detail.jsp?charingId=90535,"121.482652,31.409494",宝山区,121.47814365208977,31.411395350468855
临江新村（一，二村）小区-2号楼北侧,上海市宝山区友谊支路8号-临江新村（一，二村）小区2号楼北侧ST01-ST06。,0,6,其他,不详,不详,不详,开放时间：周一至周日00:00-24:00,https://admin.bjev520.com/jsp/beiqi/pcmap/do/pcmap_Detail.jsp?charingId=90536,"121.486329,31.410834",宝山区,121.48183336688692,31.41274568428406
临江新村（一，二村）小区-13号楼北侧,上海市宝山区盘古路110弄--临江新村（一，二村）小区13号楼北侧车位ST01-ST06。,0,6,其他,不详,不详,不详,开放时间：周一至周日00:00-24:00,https://admin.bjev520.com/jsp/beiqi/pcmap/do/pcmap_Detail.jsp?charingId=90537,"121.486329,31.410834",宝山区,121.48183336688692,31.41274568428406
临江三村,上海市宝山区盘古路247弄-临江三村41号楼北侧地面车位ST01-ST06。,0,6,其他,不详,不详,不详,开放时间：周一至周日00:00-24:00,https://admin.bjev520.com/jsp/beiqi/pcmap/do/pcmap_Detail.jsp?charingId=90538,"121.487744,31.410491",宝山区,121.48325338749372,31.41240693133817
银春苑,上海市闵行区银康路76弄-银春苑5号楼南侧地面车位48-54号车位,0,7,其他,不详,不详,不详,开放时间：周一至周日00:00-24:00,https://admin.bjev520.com/jsp/beiqi/pcmap/do/pcmap_Detail.jsp?charingId=90541,"121.387989,31.023105",闵行区,121.38336056151843,31.02505551993878
湘海大厦、湘云大楼,上海市杨浦区逸仙路333号、519号地下车库-地库A04-A06;19-24号车位，安装6台。,0,6,其他,不详,不详,不详,开放时间：周一至周日00:00-24:00,https://admin.bjev520.com/jsp/beiqi/pcmap/do/pcmap_Detail.jsp?charingId=90542,"121.487797,31.299492",杨浦区,121.48331610068057,31.30144478486833
上海市普陀真如副中心A6地块商业停车库,上海市普陀区A6地块地下车库-2层-真如A6地块负2层地下车库，B-092-B-107;B-155-,0,53,其他,不详,不详,不详,开放时间：周一至周日00:00-24:00,https://admin.bjev520.com/jsp/beiqi/pcmap/do/pcmap_Detail.jsp?charingId=90548,,,,
上海市普陀真如副中心A6地块住宅停车库,上海市普陀区A6地块地下车库-2/-3层 -B2层地库A050-A063号车位；B3层地库A082-,0,26,其他,不详,不详,不详,开放时间：周一至周日00:00-24:00,https://admin.bjev520.com/jsp/beiqi/pcmap/do/pcmap_Detail.jsp?charingId=90549,,,,
馨和雅苑,上海市闵行区瑞和新苑(南区)东南-馨和雅苑14号楼南侧地面077-079号车位。,0,3,其他,不详,不详,不详,开放时间：周一至周日00:00-24:00,https://admin.bjev520.com/jsp/beiqi/pcmap/do/pcmap_Detail.jsp?charingId=90551,"121.542169,31.047096",闵行区,121.53789460967488,31.049328559627618
云锦佳苑,上海市浦东新区泥城路88弄-云锦佳苑5号楼北侧位置ST01-ST03。,0,3,其他,不详,不详,不详,开放时间：周一至周日00:00-24:00,https://admin.bjev520.com/jsp/beiqi/pcmap/do/pcmap_Detail.jsp?charingId=90552,"121.825686,30.900105",浦东新区,121.821466927493,30.902392393048334
云锦丽苑,上海市浦东新区泥城路89弄-云锦丽苑11号楼北侧地面车位ST01-ST03。,0,1,其他,不详,不详,不详,开放时间：周一至周日00:00-24:00,https://admin.bjev520.com/jsp/beiqi/pcmap/do/pcmap_Detail.jsp?charingId=90553,"121.827029,30.898790",浦东新区,121.82281347544748,30.901080696300404
云锦名苑,上海市浦东新区泥城路158弄-云锦名苑65号楼北侧车位ST01-ST03。,0,1,其他,不详,不详,不详,开放时间：周一至周日00:00-24:00,https://admin.bjev520.com/jsp/beiqi/pcmap/do/pcmap_Detail.jsp?charingId=90554,"121.824526,30.900326",浦东新区,121.82030394199612,30.902611080458207
云锦新苑,上海市浦东新区泥城路131弄-云锦新苑15号楼西侧车位ST01-ST03。,0,3,其他,不详,不详,不详,开放时间：周一至周日00:00-24:00,https://admin.bjev520.com/jsp/beiqi/pcmap/do/pcmap_Detail.jsp?charingId=90555,"121.825700,30.897752",浦东新区,121.82148115714088,30.900040802626272
云锦雅苑,上海市浦东新区泥城路180弄-云锦雅苑50号楼西侧车位ST01-ST03。,0,1,其他,不详,不详,不详,开放时间：周一至周日00:00-24:00,https://admin.bjev520.com/jsp/beiqi/pcmap/do/pcmap_Detail.jsp?charingId=90556,"121.821534,30.898598",浦东新区,121.81730445711817,30.900878487290665
桃城度假村,上海市浦东新区沪南公路9191号-桃城度假村大门西侧。,0,2,其他,不详,不详,不详,开放时间：周一至周日00:00-24:00,https://admin.bjev520.com/jsp/beiqi/pcmap/do/pcmap_Detail.jsp?charingId=90559,"121.713688,31.038764",浦东新区,121.7093441044439,31.040905511985144
东方丽都,上海市宝山区友谊路2858弄-东方丽都53号楼南侧停车位ST01-ST06。,0,6,其他,不详,不详,不详,开放时间：周一至周日00:00-24:00,https://admin.bjev520.com/jsp/beiqi/pcmap/do/pcmap_Detail.jsp?charingId=90561,"121.435734,31.382699",宝山区,121.43109929751952,31.38450050889603
银春小区,上海市闵行区灯辉路501弄-银春花园社区服务站北侧ST01-ST06。,0,6,其他,不详,不详,不详,开放时间：周一至周日00:00-24:00,https://admin.bjev520.com/jsp/beiqi/pcmap/do/pcmap_Detail.jsp?charingId=90563,"121.422749,31.031477",闵行区,121.41812616352965,31.033427478376055
上海华侨大厦,上海市静安区延安西路129号-华侨大厦地下车库38-40号车位。     ,1,2,其他,不详,不详,不详,开放时间：周一至周日00:00-24:00,https://admin.bjev520.com/jsp/beiqi/pcmap/do/pcmap_Detail.jsp?charingId=90564,"121.443860,31.219736",静安区,121.43925547847135,31.221614325635265
万科·金色公馆-4幢4单元西北侧,上海市浦东新区济阳路333弄-万科·金色公馆-4幢4单元西北侧车位ST01-ST03。,0,3,其他,不详,不详,不详,开放时间：周一至周日00:00-24:00,https://admin.bjev520.com/jsp/beiqi/pcmap/do/pcmap_Detail.jsp?charingId=90567,"121.483084,31.160953",浦东新区,121.47859846432173,31.16295578789531
宝钢一村小区,上海市宝山区友谊路114号-宝钢一村小区73号楼北面车位ST01-ST06。,0,6,其他,不详,不详,不详,开放时间：周一至周日00:00-24:00,https://admin.bjev520.com/jsp/beiqi/pcmap/do/pcmap_Detail.jsp?charingId=90576,"121.488091,31.404525",宝山区,121.48360212841789,31.406443555159594
宝钢三村,上海市宝山区友谊路-宝钢三村53号楼北侧ST01-ST06号车位。,0,4,其他,不详,不详,不详,开放时间：周一至周日00:00-24:00,https://admin.bjev520.com/jsp/beiqi/pcmap/do/pcmap_Detail.jsp?charingId=90577,"121.481973,31.402596",宝山区,121.47746290211015,31.40449726033
圣骊河滨苑,上海市杨浦区龙江路龙江路317弄-圣骊河滨苑6号楼北侧地面14，16，18号车位；圣骊河滨苑地库19,0,11,其他,不详,不详,不详,开放时间：周一至周日00:00-24:00,https://admin.bjev520.com/jsp/beiqi/pcmap/do/pcmap_Detail.jsp?charingId=90578,"121.532208,31.257472",杨浦区,121.52788615084683,31.259570981869203
万科智云新苑,"上海市宝山区萧云路99弄-万科智云新苑16幢6号楼西北侧02-05,07-08号车位。",0,6,其他,不详,不详,不详,开放时间：周一至周日00:00-24:00,https://admin.bjev520.com/jsp/beiqi/pcmap/do/pcmap_Detail.jsp?charingId=90580,"121.337397,31.436978",宝山区,121.33281504777919,31.43881462543688
天恒名城,上海市闵行区鑫都路2688弄 -天恒名城21号楼西侧地面车位ST01-ST06号车位。,0,6,其他,不详,不详,不详,开放时间：周一至周日00:00-24:00,https://admin.bjev520.com/jsp/beiqi/pcmap/do/pcmap_Detail.jsp?charingId=90582,"121.390361,31.056111",闵行区,121.38572818029633,31.05804104346387
马桥中街,上海市闵行区富岩路7号-马桥中街7号楼北侧地面车位ST01-ST06。,0,6,其他,不详,不详,不详,开放时间：周一至周日00:00-24:00,https://admin.bjev520.com/jsp/beiqi/pcmap/do/pcmap_Detail.jsp?charingId=90584,"121.371406,31.028744",闵行区,121.36679474844226,31.03070638298713
沁春园一村,上海市闵行区莘西南路400弄-沁春园一村62号楼东侧B105-B110号车位。,0,6,其他,不详,不详,不详,开放时间：周一至周日00:00-24:00,https://admin.bjev520.com/jsp/beiqi/pcmap/do/pcmap_Detail.jsp?charingId=90586,"121.395233,31.154023",闵行区,121.39058940534534,31.15589701259857
大洪佳苑,上海市浦东新区营洪路1258弄-大洪佳苑19号楼南侧341-346号车位。,0,6,其他,不详,不详,不详,开放时间：周一至周日00:00-24:00,https://admin.bjev520.com/jsp/beiqi/pcmap/do/pcmap_Detail.jsp?charingId=90587,"121.727455,31.183647",浦东新区,121.72308623376799,31.185694534239882
凤庆小区,上海市闵行区碧江路501弄-凤庆小区42号楼北侧ST01-ST04号车位；38号楼东北侧ST05-S,0,6,其他,不详,不详,不详,开放时间：周一至周日00:00-24:00,https://admin.bjev520.com/jsp/beiqi/pcmap/do/pcmap_Detail.jsp?charingId=90588,"121.399901,31.014997",闵行区,121.39526838648663,31.016947978250617
上海市质量监督检验技术研究院,上海市闵行区江月路900号,0,4,其他,不详,不详,不详,开放时间：周一至周日00:00-24:00,https://admin.bjev520.com/jsp/beiqi/pcmap/do/pcmap_Detail.jsp?charingId=90589,"121.524377,31.087685",闵行区,121.52004384545658,31.089849012069337
申莘三村,上海市闵行区申北路350弄-申莘三村31号楼东侧322-327号车位。,0,6,其他,不详,不详,不详,开放时间：周一至周日00:00-24:00,https://admin.bjev520.com/jsp/beiqi/pcmap/do/pcmap_Detail.jsp?charingId=90591,"121.380174,31.091079",闵行区,121.37554654629366,31.09299641354783
上实滨湖城上湾华庭（鹭居）,上海市青浦区朱家角镇淀山湖大道/复兴路-朱家角特色居住区187号楼东侧地面车位1-5号车位。,0,5,其他,不详,不详,不详,开放时间：周一至周日00:00-24:00,https://admin.bjev520.com/jsp/beiqi/pcmap/do/pcmap_Detail.jsp?charingId=90595,"121.053846,31.111260",青浦区,121.0492977547638,31.113204092252463
复兴佳苑,上海市黄浦区斜土路85弄-复兴佳苑19号楼东侧01-02号车位。,0,2,其他,不详,不详,不详,开放时间：周一至周日00:00-24:00,https://admin.bjev520.com/jsp/beiqi/pcmap/do/pcmap_Detail.jsp?charingId=90596,"121.484127,31.206920",黄浦区,121.47964115393371,31.208902769618664
菊华苑,上海市宝山区菊太路1755弄-菊华苑24号楼北侧地面车位143-148号车位。,0,6,其他,不详,不详,不详,开放时间：周一至周日00:00-24:00,https://admin.bjev520.com/jsp/beiqi/pcmap/do/pcmap_Detail.jsp?charingId=90597,"121.345831,31.344913",宝山区,121.34123861770657,31.34676062478782
申通智慧物流园,"上海市青浦区重固镇-申通智慧物流园地下车库A区A142-A154；A159-A172
车位；B区B1",6,54,其他,不详,不详,不详,开放时间：周一至周日00:00-24:00,https://admin.bjev520.com/jsp/beiqi/pcmap/do/pcmap_Detail.jsp?charingId=90607,"121.217594,31.195617",青浦区,121.2131531589843,31.19763739006798
牡丹逸庭,上海市松江区泽悦路326弄-牧丹逸庭19号楼东南侧地面车位ST01-ST06。,0,6,其他,不详,不详,不详,开放时间：周一至周日00:00-24:00,https://admin.bjev520.com/jsp/beiqi/pcmap/do/pcmap_Detail.jsp?charingId=90610,"121.248885,31.104818",松江区,121.24446995949774,31.10690481247345
华漕镇新建民办双语学校,上海市闵行区金辉路1501号-诺德安达双语学校地面车位13-21号车位。,0,9,其他,不详,不详,不详,开放时间：周一至周日00:00-24:00,https://admin.bjev520.com/jsp/beiqi/pcmap/do/pcmap_Detail.jsp?charingId=90624,"121.268362,31.222556",闵行区,121.2639273410382,31.22457561865487
万临家园,上海市宝山区淞发路500弄-万临家园3号楼西面停车位ST01~ST09车位。,0,9,其他,不详,不详,不详,开放时间：周一至周日00:00-24:00,https://admin.bjev520.com/jsp/beiqi/pcmap/do/pcmap_Detail.jsp?charingId=90630,"121.490877,31.341084",宝山区,121.48640347933879,31.343030481387178
金铭福邸二期,上海市闵行区鹤庆路560弄-金铭福邸二期54号楼北侧车位ST01~ST09。,0,9,其他,不详,不详,不详,开放时间：周一至周日00:00-24:00,https://admin.bjev520.com/jsp/beiqi/pcmap/do/pcmap_Detail.jsp?charingId=90631,"121.411182,31.009288",闵行区,121.40655194921725,31.011243917823062
电水小区, 上海市闵行区碧江路195弄 -电水小区150号北侧ST01-ST08。,0,6,其他,不详,不详,不详,开放时间：周一至周日00:00-24:00,https://admin.bjev520.com/jsp/beiqi/pcmap/do/pcmap_Detail.jsp?charingId=90643,"121.404334,31.003139",闵行区,121.39970242871236,31.005096900802233
高境路恒高路公交站旁停车场,上海市宝山区高境路恒高路交叉口-停车场地面车位16号~21号，27号~32号，33号~38号。,0,18,其他,不详,不详,不详,开放时间：周一至周日00:00-24:00,https://admin.bjev520.com/jsp/beiqi/pcmap/do/pcmap_Detail.jsp?charingId=90645,"121.474900,31.322102",宝山区,121.47037298133233,31.32400930383984
丰和苑,上海市浦东新区周浦镇梓康路333弄-丰和苑13号楼南面车位87号~90号，92号,0,5,其他,不详,不详,不详,开放时间：周一至周日00:00-24:00,https://admin.bjev520.com/jsp/beiqi/pcmap/do/pcmap_Detail.jsp?charingId=90647,"121.564088,31.119960",浦东新区,121.55985998468405,31.122193425782864
康汇雅苑,上海市青浦区重固镇崧建路589弄 -康汇雅苑28号西侧车位ST06号~ST11号。,0,6,其他,不详,不详,不详,开放时间：周一至周日00:00-24:00,https://admin.bjev520.com/jsp/beiqi/pcmap/do/pcmap_Detail.jsp?charingId=90651,"121.193213,31.204018",青浦区,121.18873355868621,31.205998922918557
好世凤凰城,上海市闵行区银都路3536弄-好世凤凰城6号楼东南侧地面车位ST01~ST06。,0,6,其他,不详,不详,不详,开放时间：周一至周日00:00-24:00,https://admin.bjev520.com/jsp/beiqi/pcmap/do/pcmap_Detail.jsp?charingId=90652,"121.391713,31.091048",闵行区,121.38707640418242,31.092957546665705
佳福雅苑南区,上海市青浦区秀泽路225弄-佳福雅苑南区15号楼北侧车位164号~172号。,0,9,其他,不详,不详,不详,开放时间：周一至周日00:00-24:00,https://admin.bjev520.com/jsp/beiqi/pcmap/do/pcmap_Detail.jsp?charingId=90653,"121.156162,31.154051",青浦区,121.15161309207214,31.155989066986262
佳福雅苑A2,上海市青浦区秀禾路235弄-佳福雅苑A2-6号楼西侧069号~071号，075号~080号车位。  ,0,9,其他,不详,不详,不详,开放时间：周一至周日00:00-24:00,https://admin.bjev520.com/jsp/beiqi/pcmap/do/pcmap_Detail.jsp?charingId=90655,"121.156805,31.156190",青浦区,121.15225714957407,31.15812810151922
佳福雅苑北区,上海市青浦区秀泽路226弄-佳福雅苑北区5号楼南侧车位30号~38号。  ,0,9,其他,不详,不详,不详,开放时间：周一至周日00:00-24:00,https://admin.bjev520.com/jsp/beiqi/pcmap/do/pcmap_Detail.jsp?charingId=90656,"121.157100,31.154969",青浦区,121.15255282538865,31.1569082691069
昱芳苑,上海市青浦区崧古路99弄-昱芳苑2号楼西南侧车位36号~44号。,0,9,其他,不详,不详,不详,开放时间：周一至周日00:00-24:00,https://admin.bjev520.com/jsp/beiqi/pcmap/do/pcmap_Detail.jsp?charingId=90657,"121.153482,31.155551",青浦区,121.14892786015616,31.157483539235734
佳福雅苑东区,上海市青浦区崧泉路977弄-佳福雅苑东区1号楼南侧车位05~13号。,0,9,其他,不详,不详,不详,开放时间：周一至周日00:00-24:00,https://admin.bjev520.com/jsp/beiqi/pcmap/do/pcmap_Detail.jsp?charingId=90658,"121.155035,31.155112",青浦区,121.15048384124351,31.157047505782074
昱华苑,上海市青浦区崧古路33弄-昱华苑4号楼西侧40号~48号车位。  ,0,9,其他,不详,不详,不详,开放时间：周一至周日00:00-24:00,https://admin.bjev520.com/jsp/beiqi/pcmap/do/pcmap_Detail.jsp?charingId=90659,"121.153995,31.154660",青浦区,121.14944190445459,31.15659390518928
民乐城秀园西苑,上海市浦东新区惠南镇听健路151弄-民乐城秀园西苑地下车库A64~A69车位。 ,0,6,其他,不详,不详,不详,开放时间：周一至周日00:00-24:00,https://admin.bjev520.com/jsp/beiqi/pcmap/do/pcmap_Detail.jsp?charingId=90661,"121.744857,31.067934",浦东新区,121.74049297300802,31.070034776992816
民乐城秀园东苑,上海市浦东新区惠南镇听康路190弄-民乐城秀园东苑地下车位B001~B006车位。,0,6,其他,不详,不详,不详,开放时间：周一至周日00:00-24:00,https://admin.bjev520.com/jsp/beiqi/pcmap/do/pcmap_Detail.jsp?charingId=90662,"121.746687,31.068037",浦东新区,121.74232320622625,31.070137397767244
民乐城文竹北苑,上海市浦东新区惠南镇听康路79弄-民乐城文竹北苑地下车库车位71~76号。  ,0,6,其他,不详,不详,不详,开放时间：周一至周日00:00-24:00,https://admin.bjev520.com/jsp/beiqi/pcmap/do/pcmap_Detail.jsp?charingId=90663,"121.748017,31.069422",浦东新区,121.7436533592964,31.0715214543048
歆翱国际商务园南区,上海市嘉定区爱特路855号-歆翱国际商务园南区A栋东侧地面车位ST01~ST06。 ,0,6,其他,不详,不详,不详,开放时间：周一至周日00:00-24:00,https://admin.bjev520.com/jsp/beiqi/pcmap/do/pcmap_Detail.jsp?charingId=90664,"121.293413,31.237171",嘉定区,121.28894272564808,31.23915619938925
歆翱国际商务园北区,上海市嘉定区爱特路866号-歆翱国际商务园北区B栋北侧ST01-ST06。,0,6,其他,不详,不详,不详,开放时间：周一至周日00:00-24:00,https://admin.bjev520.com/jsp/beiqi/pcmap/do/pcmap_Detail.jsp?charingId=90665,"121.302956,31.232312",嘉定区,121.29846794532217,31.23428440036165
民乐城兰丽苑西苑,上海市浦东新区惠南镇拱海路459弄-民乐城兰丽苑西苑地下车库230号~235号车位。  ,0,6,其他,不详,不详,不详,开放时间：周一至周日00:00-24:00,https://admin.bjev520.com/jsp/beiqi/pcmap/do/pcmap_Detail.jsp?charingId=90667,"121.745629,31.071106",浦东新区,121.7412647898494,31.073204817637748
民乐城荣春苑北苑,上海市浦东新区惠南镇拱川路411弄-民乐城荣春苑北苑地下车库车位186号~191号。  ,0,6,其他,不详,不详,不详,开放时间：周一至周日00:00-24:00,https://admin.bjev520.com/jsp/beiqi/pcmap/do/pcmap_Detail.jsp?charingId=90668,"121.743792,31.063973",浦东新区,121.73942823427595,31.066076286020238
民乐城丽冬苑,上海市浦东新区惠南镇拱鸣路60弄-民乐城丽冬苑地下车库35号~40号车位。 ,0,6,其他,不详,不详,不详,开放时间：周一至周日00:00-24:00,https://admin.bjev520.com/jsp/beiqi/pcmap/do/pcmap_Detail.jsp?charingId=90669,"121.744766,31.060294",浦东新区,121.74040260779962,31.062399169042298
民乐城泓翰苑,上海市浦东新区拱乐路2100弄-民乐城泓翰苑地下车库车位A061、A001-A005。,0,6,其他,不详,不详,不详,开放时间：周一至周日00:00-24:00,https://admin.bjev520.com/jsp/beiqi/pcmap/do/pcmap_Detail.jsp?charingId=90670,"121.748302,31.063086",浦东新区,121.74393896058154,31.06518905137274
民乐城春双苑,上海市浦东新区惠南镇听达路46弄-民乐城春双苑地下车库B090~B095车位。,0,6,其他,不详,不详,不详,开放时间：周一至周日00:00-24:00,https://admin.bjev520.com/jsp/beiqi/pcmap/do/pcmap_Detail.jsp?charingId=90671,"121.737637,31.070421",浦东新区,121.73327325745203,31.072522850890152
民乐城荣春苑南苑,上海市浦东新区惠南镇拱乐路2400弄-民乐城荣春苑南苑地下车库48号~53号车位。,0,6,其他,不详,不详,不详,开放时间：周一至周日00:00-24:00,https://admin.bjev520.com/jsp/beiqi/pcmap/do/pcmap_Detail.jsp?charingId=90673,"121.743060,31.061986",浦东新区,121.73869638116669,31.064090617193706
颛溪五村,上海市闵行区颛兴路245弄-颛溪五村48号楼北面车位ST01~ST09。,0,9,其他,不详,不详,不详,开放时间：周一至周日00:00-24:00,https://admin.bjev520.com/jsp/beiqi/pcmap/do/pcmap_Detail.jsp?charingId=90676,"121.396205,31.066275",闵行区,121.39156870594073,31.06819694287888
绿洲花园,上海市宝山区沙浦路128弄-绿洲花园42号楼南侧车位ST01-STO6。,0,6,其他,不详,不详,不详,开放时间：周一至周日00:00-24:00,https://admin.bjev520.com/jsp/beiqi/pcmap/do/pcmap_Detail.jsp?charingId=90690,"121.390339,31.357436",宝山区,121.38567995817294,31.359223726076973
枫树林景苑南区,上海市嘉定区封周路505弄-枫树林景苑南区13号楼南面车位310号~315号。,0,8,其他,不详,不详,不详,开放时间：周一至周日00:00-24:00,https://admin.bjev520.com/jsp/beiqi/pcmap/do/pcmap_Detail.jsp?charingId=90691,"121.271776,31.330328",嘉定区,121.26732885409157,31.332300161644234
枫树林景苑北区,上海市嘉定区封周路508弄-枫树林景苑北区6号楼北侧车位155号~160号。,0,8,其他,不详,不详,不详,开放时间：周一至周日00:00-24:00,https://admin.bjev520.com/jsp/beiqi/pcmap/do/pcmap_Detail.jsp?charingId=90692,"121.270135,31.331692",嘉定区,121.2656893993196,31.333664965489355
沧源二村,上海市闵行区沧源路770弄-沧源二村24号楼东面车位ST03号~ST08号、01号、02号、09号。,0,9,其他,不详,不详,不详,开放时间：周一至周日00:00-24:00,https://admin.bjev520.com/jsp/beiqi/pcmap/do/pcmap_Detail.jsp?charingId=90693,"121.428973,31.013582",闵行区,121.42435955487423,31.015549490170326
贤德苑,上海市奉贤区贤瑞路388弄-贤德苑1号楼东面车位07号~15号。,0,9,其他,不详,不详,不详,开放时间：周一至周日00:00-24:00,https://admin.bjev520.com/jsp/beiqi/pcmap/do/pcmap_Detail.jsp?charingId=90696,"121.513806,30.921975",奉贤区,121.5094502515825,30.9242057605278
美邻苑,上海市闵行区保乐路666弄-美邻苑102号楼东面车位ST01~ST05、AT09、06、07、08。,0,9,其他,不详,不详,不详,开放时间：周一至周日00:00-24:00,https://admin.bjev520.com/jsp/beiqi/pcmap/do/pcmap_Detail.jsp?charingId=90697,"121.283916,31.201493",闵行区,121.2794643498843,31.203507762937846
海尚康庭,上海市浦东新区康弘路580弄-海尚康庭16号楼西面车位ST01号~ST09号。,0,9,其他,不详,不详,不详,开放时间：周一至周日00:00-24:00,https://admin.bjev520.com/jsp/beiqi/pcmap/do/pcmap_Detail.jsp?charingId=90703,"121.598105,31.126840",浦东新区,121.59391229640894,31.12909477672551
环球世界大厦,上海市愚园路168号-环球世界大厦地下车库出入口自南向北第一、自南向北第二、自南向北第三车位。,1,2,其他,不详,不详,不详,开放时间：周一至周日00:00-24:00,https://admin.bjev520.com/jsp/beiqi/pcmap/do/pcmap_Detail.jsp?charingId=90706,"121.444391,31.224172",静安区,121.43978724702924,31.226049206520646
陆家角馨苑东区,上海市青浦区乐爱路38弄-陆家角馨苑东区79号北侧25号~40号车位。,0,16,其他,不详,不详,不详,开放时间：周一至周日00:00-24:00,https://admin.bjev520.com/jsp/beiqi/pcmap/do/pcmap_Detail.jsp?charingId=90714,"121.234438,31.176222",青浦区,121.23001354319378,31.17826653055719
河畔家苑,上海市青浦区盈港东路3188弄-河畔家苑8号楼北侧地上车位ST01~ST10号。,0,10,其他,不详,不详,不详,开放时间：周一至周日00:00-24:00,https://admin.bjev520.com/jsp/beiqi/pcmap/do/pcmap_Detail.jsp?charingId=90715,"121.240761,31.169177",青浦区,121.23633972307657,31.17122797459811
云间名门,上海市松江区松汇中路518弄-云间名门6号楼北侧车位ST02-ST07，01号、08号、09号。,0,9,其他,不详,不详,不详,开放时间：周一至周日00:00-24:00,https://admin.bjev520.com/jsp/beiqi/pcmap/do/pcmap_Detail.jsp?charingId=90716,"121.235942,31.003609",松江区,121.23153284945366,31.0057503994453
上海市松江区三湘商业广场地下停车场,上海市松江区泗宝路2号-三湘商业广场地下车库车位158号~163号、171号~179号。,2,9,其他,不详,不详,不详,开放时间：周一至周日00:00-24:00,https://admin.bjev520.com/jsp/beiqi/pcmap/do/pcmap_Detail.jsp?charingId=90718,"121.259949,31.117270",松江区,121.25552940489824,31.119347952179517
平安富邸,上海市奉贤区海旗路1518弄-平安富邸12号楼西面地上车位068号~076号。,0,9,其他,不详,不详,不详,开放时间：周一至周日00:00-24:00,https://admin.bjev520.com/jsp/beiqi/pcmap/do/pcmap_Detail.jsp?charingId=90719,"121.737725,30.895880",奉贤区,121.73337587995738,30.898084361951316
闵联昆阳小区,上海市闵行区昆阳路570弄-闵联昆阳小区7号楼北侧车位01号、03号、17号、ST04~ST10号、,0,12,其他,不详,不详,不详,开放时间：周一至周日00:00-24:00,https://admin.bjev520.com/jsp/beiqi/pcmap/do/pcmap_Detail.jsp?charingId=90720,"121.372017,30.999343",闵行区,121.36740743174802,31.00132190982663
石龙春晓,上海市徐汇区蝶山路125弄地下车库车位526号~533、534A号、535A号。,0,10,其他,不详,不详,不详,开放时间：周一至周日00:00-24:00,https://admin.bjev520.com/jsp/beiqi/pcmap/do/pcmap_Detail.jsp?charingId=90721,"121.441920,31.159127",徐汇区,121.43731662895321,31.161031996423862
水清一村,上海市闵行区雅致路228弄-水清一村28号楼东侧地上车位01号、ST02~ST07、08号。,0,8,其他,不详,不详,不详,开放时间：周一至周日00:00-24:00,https://admin.bjev520.com/jsp/beiqi/pcmap/do/pcmap_Detail.jsp?charingId=90723,"121.380425,31.114451",闵行区,121.37579525864052,31.116355232111836
新南家园,上海市奉贤区西渡街道西闸公路1118弄-新南家园158号楼西面地上车位ST01~ST06。,0,10,其他,不详,不详,不详,开放时间：周一至周日00:00-24:00,https://admin.bjev520.com/jsp/beiqi/pcmap/do/pcmap_Detail.jsp?charingId=90725,"121.446645,30.993188",奉贤区,121.44206621901729,30.99519505759792
清雅苑,上海市奉贤区清宁路488弄-清雅苑4号楼北侧地上车位41号~46号。,0,6,其他,不详,不详,不详,开放时间：周一至周日00:00-24:00,https://admin.bjev520.com/jsp/beiqi/pcmap/do/pcmap_Detail.jsp?charingId=90726,"121.511692,30.941848",奉贤区,121.50732710913395,30.944060776173497
齐贤雅苑,上海市奉贤区沿港河路558弄-齐贤雅苑8号楼西侧地上车位41号~51号。,0,11,其他,不详,不详,不详,开放时间：周一至周日00:00-24:00,https://admin.bjev520.com/jsp/beiqi/pcmap/do/pcmap_Detail.jsp?charingId=90727,"121.505985,30.960223",奉贤区,121.5015981661635,30.96240790289943
新浦江城二期,上海市闵行区江栀路500弄68号-新浦江城二期地下车库车位279号、280号、290号、291号。,0,12,其他,不详,不详,不详,开放时间：周一至周日00:00-24:00,https://admin.bjev520.com/jsp/beiqi/pcmap/do/pcmap_Detail.jsp?charingId=90728,"121.492714,31.097948",闵行区,121.48826777017423,31.100013087178507
昆阳住宅3区,"上海市闵行区天星路240弄-昆阳住宅3区3号楼北面车位01、02、ST03-ST08、09,。",0,9,其他,不详,不详,不详,开放时间：周一至周日00:00-24:00,https://admin.bjev520.com/jsp/beiqi/pcmap/do/pcmap_Detail.jsp?charingId=90730,"121.371184,30.998371",闵行区,121.36657568014733,31.000351477776874
宝钢十一村,上海市宝山区宝钢十一村36号北侧地上车位01-12号。,0,12,其他,不详,不详,不详,开放时间：周一至周日00:00-24:00,https://admin.bjev520.com/jsp/beiqi/pcmap/do/pcmap_Detail.jsp?charingId=90745,"121.485866,31.409950",宝山区,121.4813688158782,31.41186056325305
馨昌佳苑,上海市闵行区华漕镇季乐路268弄-馨昌佳苑27号北侧车位154号~156号。,0,3,其他,不详,不详,不详,开放时间：周一至周日00:00-24:00,https://admin.bjev520.com/jsp/beiqi/pcmap/do/pcmap_Detail.jsp?charingId=90747,"121.291758,31.217025",闵行区,121.28729235456751,31.21902195782651
新华小区,上海市闵行区鹤庆路585弄-新华小区11号楼北侧车位ST01~ST12。,0,12,其他,不详,不详,不详,开放时间：周一至周日00:00-24:00,https://admin.bjev520.com/jsp/beiqi/pcmap/do/pcmap_Detail.jsp?charingId=90748,"121.409660,31.005506",闵行区,121.40502960545922,31.007463597813253
上海中邦城市园B区,上海市浦东新区秀沿路867弄-上海中邦城市园B区1号楼东面围墙外从西向东第1、2车位。,0,2,其他,不详,不详,不详,开放时间：周一至周日00:00-24:00,https://admin.bjev520.com/jsp/beiqi/pcmap/do/pcmap_Detail.jsp?charingId=90749,"121.571332,31.134979",浦东新区,121.5671152854455,31.137213945661838
云松景庭,上海市浦东新区彩云路567弄-云松景庭22号西侧车位ST01~ST18。,0,18,其他,不详,不详,不详,开放时间：周一至周日00:00-24:00,https://admin.bjev520.com/jsp/beiqi/pcmap/do/pcmap_Detail.jsp?charingId=90757,"121.806529,30.897914",浦东新区,121.80226259885404,30.900167863612445
云树欣居,上海市浦东新区彩云路717弄-云树欣居24号西侧车位ST01~ST18。,0,18,其他,不详,不详,不详,开放时间：周一至周日00:00-24:00,https://admin.bjev520.com/jsp/beiqi/pcmap/do/pcmap_Detail.jsp?charingId=90758,"121.803903,30.897635",浦东新区,121.79963052767705,30.89988460485408
云松翠庭,上海市浦东新区彩云路357弄-云松翠庭22号楼北侧地面车位ST01~ST18。,0,18,其他,不详,不详,不详,开放时间：周一至周日00:00-24:00,https://admin.bjev520.com/jsp/beiqi/pcmap/do/pcmap_Detail.jsp?charingId=90759,"121.812294,30.897910",浦东新区,121.80804142355302,30.900173950003385
云松华庭,上海市浦东新区彩云路568弄-云松华庭28号北侧车位ST01~ST14。,0,14,其他,不详,不详,不详,开放时间：周一至周日00:00-24:00,https://admin.bjev520.com/jsp/beiqi/pcmap/do/pcmap_Detail.jsp?charingId=90760,"121.806665,30.899788",浦东新区,121.80239876298182,30.902040994253376
云树雅居,上海市浦东新区彩云路718弄-云树雅居18号楼北侧车位12号~21号，27号楼北侧01号~11号。,0,21,其他,不详,不详,不详,开放时间：周一至周日00:00-24:00,https://admin.bjev520.com/jsp/beiqi/pcmap/do/pcmap_Detail.jsp?charingId=90761,"121.803794,30.898911",浦东新区,121.79952117201644,30.901159673979055
亚龙创业园,上海市静安区云欣路200弄-亚龙创业园地下车库车位52号~59号。,0,8,其他,不详,不详,不详,开放时间：周一至周日00:00-24:00,https://admin.bjev520.com/jsp/beiqi/pcmap/do/pcmap_Detail.jsp?charingId=90763,"121.452474,31.303897",静安区,121.44788244806783,31.305755953201732
水岸秀苑7幢,上海市嘉定区鹤旋路500弄-水岸秀苑7幢26号西侧由南向北一到十号车位。,0,10,其他,不详,不详,不详,开放时间：周一至周日00:00-24:00,https://admin.bjev520.com/jsp/beiqi/pcmap/do/pcmap_Detail.jsp?charingId=90764,"121.308470,31.238780",嘉定区,121.30396996920926,31.24073995157999
同福苑（幸福里）,上海市浦东新区新雅东路125弄-同福苑16号楼北侧车位54号~63号。,0,10,其他,不详,不详,不详,开放时间：周一至周日00:00-24:00,https://admin.bjev520.com/jsp/beiqi/pcmap/do/pcmap_Detail.jsp?charingId=90767,"121.688464,31.237614",浦东新区,121.68414195247007,31.2396900919183
宝山二村（北块）,上海市宝山区宝山二村（北块）-宝山二村74号北侧地上车位01~12号。,0,12,其他,不详,不详,不详,开放时间：周一至周日00:00-24:00,https://admin.bjev520.com/jsp/beiqi/pcmap/do/pcmap_Detail.jsp?charingId=90772,"121.500407,31.394689",宝山区,121.49596323042826,31.39664709310201
嘉海雅苑北区II,上海市嘉定区嘉峪关路380弄-嘉海雅苑北区15号楼北侧地上车位370~379。,0,10,其他,不详,不详,不详,开放时间：周一至周日00:00-24:00,https://admin.bjev520.com/jsp/beiqi/pcmap/do/pcmap_Detail.jsp?charingId=90774,"121.315887,31.271947",嘉定区,121.3113679933961,31.273878954680104
绿地天呈（慧怡雅居）,上海市嘉定区胜竹路2600弄-绿地天呈（慧怡雅居）108号楼南侧地上车位126~145号。,0,20,其他,不详,不详,不详,开放时间：周一至周日00:00-24:00,https://admin.bjev520.com/jsp/beiqi/pcmap/do/pcmap_Detail.jsp?charingId=90775,"121.240734,31.397688",嘉定区,121.23629333357522,31.39964628892599
金塔三村,上海市闵行区沪闵路2242弄-金塔三村155号北侧地上车位19号~35号。,0,17,其他,不详,不详,不详,开放时间：周一至周日00:00-24:00,https://admin.bjev520.com/jsp/beiqi/pcmap/do/pcmap_Detail.jsp?charingId=90776,"121.407056,31.039364",闵行区,121.40242181371823,31.041301100648003
华尔兹花园,上海市徐汇区漕宝路77弄-华尔兹花园40号楼北侧地面车位288~286号。,0,4,其他,不详,不详,不详,开放时间：周一至周日00:00-24:00,https://admin.bjev520.com/jsp/beiqi/pcmap/do/pcmap_Detail.jsp?charingId=90778,"121.428310,31.168358",徐汇区,121.42368222328574,31.17023850734565
莘松七村,上海市闵行区莘沥路512弄-莘松七村8号楼东侧车位04~19、36~39、56~59、74。,0,18,其他,不详,不详,不详,开放时间：周一至周日00:00-24:00,https://admin.bjev520.com/jsp/beiqi/pcmap/do/pcmap_Detail.jsp?charingId=90780,"121.367307,31.108323",闵行区,121.36269494869362,31.110245254400425
云树仁居35号,上海市浦东新区彩云路843弄-云树仁居35号楼北地上车位01~12。,0,12,其他,不详,不详,不详,开放时间：周一至周日00:00-24:00,https://admin.bjev520.com/jsp/beiqi/pcmap/do/pcmap_Detail.jsp?charingId=90781,"121.800487,30.897772",浦东新区,121.79620681115811,30.900015958965096
宝山九村（南块）84号楼,上海市宝山区宝山九村（南块）-84号楼北侧西向东车位1~18号。,0,18,其他,不详,不详,不详,开放时间：周一至周日00:00-24:00,https://admin.bjev520.com/jsp/beiqi/pcmap/do/pcmap_Detail.jsp?charingId=90783,,,,
水岸秀苑10幢,上海市嘉定区鹤旋路500弄-水岸秀苑10幢33号东侧地上车位由南向北1~10号。,0,10,其他,不详,不详,不详,开放时间：周一至周日00:00-24:00,https://admin.bjev520.com/jsp/beiqi/pcmap/do/pcmap_Detail.jsp?charingId=90784,"121.308470,31.238780",嘉定区,121.30396996920926,31.24073995157999
水岸秀苑12幢,上海市嘉定区鹤旋路500弄-水岸秀苑12幢43号楼东侧由南向北地上车位一到十号。,0,10,其他,不详,不详,不详,开放时间：周一至周日00:00-24:00,https://admin.bjev520.com/jsp/beiqi/pcmap/do/pcmap_Detail.jsp?charingId=90785,"121.308470,31.238780",嘉定区,121.30396996920926,31.24073995157999
水岸秀苑42幢,上海市嘉定区鹤旋路500弄-水岸秀苑42幢147号西侧由南向北车位1~10号。,0,10,其他,不详,不详,不详,开放时间：周一至周日00:00-24:00,https://admin.bjev520.com/jsp/beiqi/pcmap/do/pcmap_Detail.jsp?charingId=90786,"121.308470,31.238780",嘉定区,121.30396996920926,31.24073995157999
万科智云新苑II,上海市宝山区萧云路99弄-万科智云新苑43号西侧地上车位9~14号、16~27号。,0,18,其他,不详,不详,不详,开放时间：周一至周日00:00-24:00,https://admin.bjev520.com/jsp/beiqi/pcmap/do/pcmap_Detail.jsp?charingId=90788,"121.337397,31.436978",宝山区,121.33281504777919,31.43881462543688
万科智云新苑二期,上海市宝山区萧云路99弄-万科智云新苑二期88号西侧车位33~44、49~54。,0,18,其他,不详,不详,不详,开放时间：周一至周日00:00-24:00,https://admin.bjev520.com/jsp/beiqi/pcmap/do/pcmap_Detail.jsp?charingId=90789,"121.337397,31.436978",宝山区,121.33281504777919,31.43881462543688
宝山九村（南块）88号楼,上海市宝山区宝山九村（南块）-88号楼北侧西向东车位1~12。,0,12,其他,不详,不详,不详,开放时间：周一至周日00:00-24:00,https://admin.bjev520.com/jsp/beiqi/pcmap/do/pcmap_Detail.jsp?charingId=90790,,,,
航华四村,上海市闵行区航南路1号-航华四村95号楼东北侧地面车位01~18号。,0,18,其他,不详,不详,不详,开放时间：周一至周日00:00-24:00,https://admin.bjev520.com/jsp/beiqi/pcmap/do/pcmap_Detail.jsp?charingId=90795,"121.359089,31.170396",闵行区,121.35448546816302,31.17229700259956
云树仁居52号,上海市浦东新区彩云路843弄-云树仁居52号北侧地面车位13~30号。,0,18,其他,不详,不详,不详,开放时间：周一至周日00:00-24:00,https://admin.bjev520.com/jsp/beiqi/pcmap/do/pcmap_Detail.jsp?charingId=90796,"121.800573,30.897154",浦东新区,121.79629305310934,30.899398459373963
云松华庭II,上海市浦东新区彩云路568弄-云松华庭32号北侧地面车位ST15~ST30。,0,16,其他,不详,不详,不详,开放时间：周一至周日00:00-24:00,https://admin.bjev520.com/jsp/beiqi/pcmap/do/pcmap_Detail.jsp?charingId=90797,"121.807862,30.900006",浦东新区,121.80359857093887,30.902260922496904
云松景庭II,上海市浦东新区彩云路567弄-云松景庭21号北侧地面车位ST19-ST30。,0,12,其他,不详,不详,不详,开放时间：周一至周日00:00-24:00,https://admin.bjev520.com/jsp/beiqi/pcmap/do/pcmap_Detail.jsp?charingId=90798,"121.806744,30.897913",浦东新区,121.80247810398173,30.90016723142838
云树雅居II,上海市浦东新区彩云路718弄-云树雅居36号北侧车位ST22-ST30。,0,9,其他,不详,不详,不详,开放时间：周一至周日00:00-24:00,https://admin.bjev520.com/jsp/beiqi/pcmap/do/pcmap_Detail.jsp?charingId=90800,"121.804404,30.900059",浦东新区,121.80013247851235,30.90230801456168
天星苑II,上海市闵行区东川路3533弄-天星苑2号楼南侧车位01-06。,0,6,其他,不详,不详,不详,开放时间：周一至周日00:00-24:00,https://admin.bjev520.com/jsp/beiqi/pcmap/do/pcmap_Detail.jsp?charingId=90803,"121.371886,31.000953",闵行区,121.3672764744109,31.002931115608693
复星新苑,上海市宝山区沪太路1771弄-复星新苑50号东侧地上车位自西向东车位1~9号。,0,9,其他,不详,不详,不详,开放时间：周一至周日00:00-24:00,https://admin.bjev520.com/jsp/beiqi/pcmap/do/pcmap_Detail.jsp?charingId=97961,"121.421906,31.287755",宝山区,121.41725999381181,31.289573753567776
宝杨路2021弄,上海市宝山区宝杨路2021弄-宝杨路2021弄6号楼北面地上车位01~06号。,0,6,其他,不详,不详,不详,开放时间：周一至周日00:00-24:00,https://admin.bjev520.com/jsp/beiqi/pcmap/do/pcmap_Detail.jsp?charingId=97982,"121.466674,31.390936",宝山区,121.46211485397096,31.39279877850746
宝钢二村,上海市宝山区宝钢二村23号楼北面地上车位01~06号。,0,6,其他,不详,不详,不详,开放时间：周一至周日00:00-24:00,https://admin.bjev520.com/jsp/beiqi/pcmap/do/pcmap_Detail.jsp?charingId=97988,"121.486631,31.406873",宝山区,121.48213677060492,31.40878662619586
桂花锦苑II,上海市松江区泽悦路88弄-桂花锦苑32号楼南侧地上车位01~08号。,0,8,其他,不详,不详,不详,开放时间：周一至周日00:00-24:00,https://admin.bjev520.com/jsp/beiqi/pcmap/do/pcmap_Detail.jsp?charingId=97989,"121.247464,31.098523",松江区,121.24304955502994,31.100613227954234
宝钢四村,上海市宝山区宝钢四村17号楼北面地上车位01-06号。,0,6,其他,不详,不详,不详,开放时间：周一至周日00:00-24:00,https://admin.bjev520.com/jsp/beiqi/pcmap/do/pcmap_Detail.jsp?charingId=98147,"121.486427,31.407107",宝山区,121.48193203234611,31.409019965140427
中共百联集团有限公司委员会党校,上海市杨浦区民星路525号南侧围墙旁边车位西向东1-6号。,0,6,其他,不详,不详,不详,开放时间：周一至周日00:00-24:00,https://admin.bjev520.com/jsp/beiqi/pcmap/do/pcmap_Detail.jsp?charingId=98321,"121.533737,31.310862",杨浦区,121.52941546671352,31.312943044887806
五丰苑,上海市松江区荣乐西路106弄-小区64号楼东侧ST01-ST03号车位。 ,0,3,其他,不详,不详,不详,开放时间：周一至周日00:00-24:00,https://admin.bjev520.com/jsp/beiqi/pcmap/do/pcmap_Detail.jsp?charingId=98336,"121.210068,31.018300",松江区,121.20563224294463,31.020408153765597
云松翠庭II,上海市浦东新区彩云路357弄-云松翠庭24号楼北侧地上车位ST19-ST30。,0,12,其他,不详,不详,不详,开放时间：周一至周日00:00-24:00,https://admin.bjev520.com/jsp/beiqi/pcmap/do/pcmap_Detail.jsp?charingId=98337,"121.811853,30.897915",浦东新区,121.80759934658819,30.9001781596961
馨越公寓III,"上海市普陀区千阳南路99弄-馨越公寓地库入口处4-537,4-536,4-533、4-521、4-5",0,6,其他,不详,不详,不详,开放时间：周一至周日00:00-24:00,https://admin.bjev520.com/jsp/beiqi/pcmap/do/pcmap_Detail.jsp?charingId=98480,"121.364549,31.229757",普陀区,121.35993085087824,31.231620991848196
馨越公寓II,上海市普陀区千阳南路99弄-馨越公寓地库入口处4-004、4-002、4-001、4-068、4-0,0,7,其他,不详,不详,不详,开放时间：周一至周日00:00-24:00,https://admin.bjev520.com/jsp/beiqi/pcmap/do/pcmap_Detail.jsp?charingId=98481,"121.364549,31.229757",普陀区,121.35993085087824,31.231620991848196
爱建顾园西区II,上海市宝山区菊盛路50弄-小区30号楼北侧地面车位ST01-ST04；,0,4,其他,不详,不详,不详,开放时间：周一至周日00:00-24:00,https://admin.bjev520.com/jsp/beiqi/pcmap/do/pcmap_Detail.jsp?charingId=98489,"121.374596,31.349924",宝山区,121.36995256829445,31.35172703357072
爱建顾园东区II,上海市宝山区菊泉街39弄--爱建顾园东区4号楼西侧地面车位7台。,0,7,其他,不详,不详,不详,开放时间：周一至周日00:00-24:00,https://admin.bjev520.com/jsp/beiqi/pcmap/do/pcmap_Detail.jsp?charingId=98490,"121.378548,31.351439",宝山区,121.37389966501931,31.35323745471386
金硕河畔东区II,上海市闵行区浦连路388弄12号楼东侧,0,4,其他,不详,不详,不详,开放时间：周一至周日00:00-24:00,https://admin.bjev520.com/jsp/beiqi/pcmap/do/pcmap_Detail.jsp?charingId=98491,"121.535922,31.055002",闵行区,121.53162858785353,31.057215021920015
云树欣居II,上海市浦东新区彩云路717弄云树欣居24号北侧ST19~ST28。,0,10,其他,不详,不详,不详,开放时间：周一至周日00:00-24:00,https://admin.bjev520.com/jsp/beiqi/pcmap/do/pcmap_Detail.jsp?charingId=98514,"121.803903,30.897635",浦东新区,121.79963052767705,30.89988460485408
特来电上海东淮海国际大厦充电站,上海市市辖区黄浦区淮海东路49号,1,9,其他,"00:00~06:00:0.27,06:00~08:00:0.512,08:00~11:00:0.912,11:00~18:00:0.512,18:00~21:00:0.912,21:00~22:00:0.512,22:00~24:00:0.27
","00:00~06:00:0.8,06:00~08:00:0.8,08:00~11:00:0.8,11:00~18:00:0.8,18:00~21:00:0.8,21:00~22:00:0.8,22:00~24:00:0.8",以场地实际费用为准,开放时间：周一至周日00:00-24:00,https://admin.bjev520.com/jsp/beiqi/pcmap/do/pcmap_Detail.jsp?charingId=100247,"121.482295,31.226571",黄浦区,121.47780113110541,31.228539153974246
特来电黄浦区华旭国际大厦B1充电站,上海市市辖区黄浦区西藏中路336号,0,1,其他,00:00~24:00:1.5,00:00~24:00:0.8,以场地实际收费为准,开放时间：周一至周日00:00-24:00,https://admin.bjev520.com/jsp/beiqi/pcmap/do/pcmap_Detail.jsp?charingId=100248,"121.475835,31.233751",黄浦区,121.471318667689,31.235697582218037
特来电上海黄浦旺角广场充电站,上海市市辖区黄浦区延安东路175号,4,0,其他,00:00~24:00:0.77,00:00~24:00:0.8,以场地实际收费为准,开放时间：周一至周日19:00-24:00、00:00-07:00,https://admin.bjev520.com/jsp/beiqi/pcmap/do/pcmap_Detail.jsp?charingId=100250,"121.484769,31.230649",黄浦区,121.48028336059323,31.232622424715373
特来电上海黄浦博荟广场充电站,上海市市辖区黄浦区龙华东路325号,43,21,其他,00:00~24:00:0.75,00:00~24:00:0.8,实际收费以场地收费标准为准，仅app显示电桩可正常充电，其他暂不支持启动,开放时间：周一至周日00:00-24:00,https://admin.bjev520.com/jsp/beiqi/pcmap/do/pcmap_Detail.jsp?charingId=100251,"121.481816,31.196852",黄浦区,121.47732302573698,31.19883300010391
特来电上海美华妇儿医院充电站,上海市市辖区徐汇区宋园路155号,2,23,其他,00:00~24:00:1.3,00:00~24:00:0.5,以场地实际收费为准,开放时间：周一至周日00:00-24:00,https://admin.bjev520.com/jsp/beiqi/pcmap/do/pcmap_Detail.jsp?charingId=100252,"121.413000,31.189137",徐汇区,121.40835531122734,31.190994479955535
特来电上海申南新地大厦充电站,上海市市辖区徐汇区柳州路138号,2,6,其他,00:00~24:00:1.2,00:00~24:00:0.9,以场地实际费用为准,开放时间：周一至周日00:00-24:00,https://admin.bjev520.com/jsp/beiqi/pcmap/do/pcmap_Detail.jsp?charingId=100255,"121.426037,31.159569",徐汇区,121.42140696073054,31.161451524912977
特来电上海东阔生活广场充电站,上海市市辖区徐汇区华发路272号,1,0,其他,00:00~24:00:1.4,00:00~24:00:0.9,以场地实际收费为准,开放时间：周一至周日00:00-24:00,https://admin.bjev520.com/jsp/beiqi/pcmap/do/pcmap_Detail.jsp?charingId=100256,"121.449853,31.127086",徐汇区,121.44527024004945,31.129022932925007
特来电上海永升大厦充电站,上海市市辖区徐汇区中山西路2025号,2,8,其他,00:00~24:00:1.1,00:00~24:00:0.4,以场地实际收费为准,开放时间：周一至周日00:00-24:00,https://admin.bjev520.com/jsp/beiqi/pcmap/do/pcmap_Detail.jsp?charingId=100257,"121.427784,31.182661",徐汇区,121.42315425684957,31.184533640175257
特来电上海D1国际创意空间充电站,上海市市辖区徐汇区天钥桥路909号,6,0,其他,00:00~24:00:1.3,00:00~24:00:0.5,以场地实际收费为准,开放时间：周一至周日00:00-24:00,https://admin.bjev520.com/jsp/beiqi/pcmap/do/pcmap_Detail.jsp?charingId=100258,"121.445591,31.178682",徐汇区,121.44099384119285,31.180583583367394
特来电上海沪水商务大厦充电站,上海市市辖区徐汇区中山西路1790号,2,0,其他,00:00~24:00:1.25,00:00~24:00:0.8,以场地实际收费为准,开放时间：周一至周日00:00-24:00,https://admin.bjev520.com/jsp/beiqi/pcmap/do/pcmap_Detail.jsp?charingId=100260,"121.424100,31.184036",徐汇区,121.4194654699949,31.185904064836713
特来电上海万科中心2期充电站,上海市市辖区徐汇区沪闵路9333号,5,5,其他,00:00~24:00:1.3,00:00~24:00:0.5,充电请告知保安，停车费以场地实际收费为准,开放时间：周一至周日00:00-24:00,https://admin.bjev520.com/jsp/beiqi/pcmap/do/pcmap_Detail.jsp?charingId=100261,"121.432978,31.159688",徐汇区,121.42835802666532,31.161578867002234
特来电上海上实大厦充电站,上海市市辖区徐汇区漕溪北路18号,0,11,其他,00:00~24:00:1.2,00:00~24:00:0.8,以场地方实际收费为准,开放时间：周一至周日00:00-24:00,https://admin.bjev520.com/jsp/beiqi/pcmap/do/pcmap_Detail.jsp?charingId=100262,"121.437816,31.192755",徐汇区,121.43320163001817,31.194636172800823
特来电上海明基广场充电站,上海市市辖区长宁区淞虹路207号,0,37,其他,"00:00~06:00:0.357,06:00~08:00:0.734,08:00~11:00:1.196,11:00~18:00:0.734,18:00~21:00:1.196,21:00~22:00:0.734,22:00~24:00:0.357
","00:00~06:00:0.8,06:00~08:00:0.766,08:00~11:00:0.304,11:00~18:00:0.766,18:00~21:00:0.304,21:00~22:00:0.766,22:00~24:00:0.8",以场地实际费用为准,开放时间：周一至周日00:00-24:00,https://admin.bjev520.com/jsp/beiqi/pcmap/do/pcmap_Detail.jsp?charingId=100270,"121.360440,31.221654",长宁区,121.35582960153404,31.22352775486488
特来电上海虹桥锦江充电站,上海市市辖区长宁区遵义南路5号,4,7,其他,00:00~24:00:1.3,00:00~24:00:0.7,以场地实际费用为准,开放时间：周一至周日00:00-24:00,https://admin.bjev520.com/jsp/beiqi/pcmap/do/pcmap_Detail.jsp?charingId=100275,"121.405597,31.203675",长宁区,121.40094821862192,31.205523057904582
特来电上海文广大厦充电站,上海市市辖区长宁区虹桥路1380号,1,3,其他,00:00~24:00:1.1,00:00~24:00:0.4,以场地实际费用为准,开放时间：周一至周日00:00-24:00,https://admin.bjev520.com/jsp/beiqi/pcmap/do/pcmap_Detail.jsp?charingId=100277,"121.406725,31.197103",长宁区,121.40207703392157,31.19895445460156
特来电上海新虹桥中心充电站,上海市市辖区长宁区娄山关路83号-17-～18层,0,27,其他,00:00~24:00:1.3,00:00~24:00:0.5,以场地实际收费为准,开放时间：周一至周日00:00-24:00,https://admin.bjev520.com/jsp/beiqi/pcmap/do/pcmap_Detail.jsp?charingId=100279,"121.402641,31.204349",长宁区,121.39799184066352,31.206196504357354
特来电上海东银中心充电站,上海市市辖区长宁区红宝石路500号,8,2,其他,00:00~24:00:1.3,00:00~24:00:0.5,15元/小时，前15分钟免费（仅供参考，以场地实际费用为准）,开放时间：周一至周日07:00-22:00,https://admin.bjev520.com/jsp/beiqi/pcmap/do/pcmap_Detail.jsp?charingId=100283,"121.399403,31.198041",长宁区,121.39475456265791,31.19989177174263
特来电上海金虹桥国际中心充电站,上海市市辖区长宁区茅台路179号,15,32,其他,00:00~24:00:1.35,00:00~24:00:0.8,以场地实际收费为准,开放时间：周一至周日00:00-24:00,https://admin.bjev520.com/jsp/beiqi/pcmap/do/pcmap_Detail.jsp?charingId=100285,"121.402457,31.209085",长宁区,121.39780742332998,31.210930216251818
特来电上海虹桥宾馆充电站,上海市市辖区长宁区延安西路2000号,2,1,其他,"00:00~06:00:0.2749,06:00~08:00:0.6436,08:00~11:00:1.1352,11:00~18:00:0.6436,18:00~19:00:1.1352,19:00~21:00:1.5529,21:00~22:00:0.6436,22:00~24:00:0.2749
","00:00~06:00:0.8,06:00~09:00:0.7,09:00~11:00:0.25,11:00~18:00:0.7,18:00~21:00:0.25,21:00~22:00:0.7,22:00~24:00:0.8",停车费15元/时（仅供参考，以场地实际收费为准）,开放时间：周一至周日00:00-24:00,https://admin.bjev520.com/jsp/beiqi/pcmap/do/pcmap_Detail.jsp?charingId=100286,"121.410014,31.203973",长宁区,121.40536652860894,31.205821976528348
特来电上海中山万博国际中心充电站,上海市市辖区长宁区淮海西路666号,5,0,其他,00:00~24:00:1.3,00:00~24:00:0.5,12元/时（仅供参考，以场地方收费为准）,开放时间：周一至周日00:00-24:00,https://admin.bjev520.com/jsp/beiqi/pcmap/do/pcmap_Detail.jsp?charingId=100288,"121.422562,31.196910",长宁区,121.41792461310855,31.1987702328085
特来电上海缤谷大厦充电站,上海市市辖区长宁区威宁路369号,7,11,其他,"00:00~06:00:0.2749,06:00~08:00:0.6436,08:00~11:00:1.1352,11:00~18:00:0.6436,18:00~19:00:1.1352,19:00~21:00:1.5529,21:00~22:00:0.6436,22:00~24:00:0.2749
","00:00~06:00:0.5525,06:00~08:00:0.3542,08:00~11:00:0.323,11:00~18:00:0.3542,18:00~21:00:0.323,21:00~22:00:0.3542,22:00~24:00:0.5525",不详,开放时间：周一至周日00:00-24:00,https://admin.bjev520.com/jsp/beiqi/pcmap/do/pcmap_Detail.jsp?charingId=100290,"121.384756,31.214008",长宁区,121.38011350837651,31.21585745032586
特来电上海万宝国际广场充电站,上海市市辖区长宁区延安西路500,3,6,其他,"00:00~06:00:0.2749,06:00~08:00:0.6436,08:00~11:00:1.1352,11:00~18:00:0.6436,18:00~19:00:1.1352,19:00~21:00:1.4117,21:00~22:00:0.6436,22:00~24:00:0.2749
","00:00~06:00:0.8,06:00~08:00:0.8,08:00~11:00:0.403,11:00~18:00:0.8,18:00~21:00:0.403,21:00~22:00:0.8,22:00~24:00:0.8",前半小时免费，10元/时（以场地方实际收费为准）,开放时间：周一至周日00:00-24:00,https://admin.bjev520.com/jsp/beiqi/pcmap/do/pcmap_Detail.jsp?charingId=100291,"121.436321,31.217144",长宁区,121.43170177018963,31.21901106958413
特来电上海智慧广场充电站,上海市市辖区静安区武宁南路488号,4,18,其他,00:00~24:00:0.89,00:00~24:00:0.6,前15分钟免费，10元/小时（仅供参考，以场地实际费用为准）,开放时间：周一至周日00:00-24:00,https://admin.bjev520.com/jsp/beiqi/pcmap/do/pcmap_Detail.jsp?charingId=100293,"121.430943,31.233610",静安区,121.42631339331574,31.235461920772863
特来电上海恒隆广场充电站,上海市市辖区静安区南京西路1266号,9,10,其他,00:00~24:00:1.2,00:00~24:00:0.8,20元/小时（仅供参考，以场地实际费用为准）,开放时间：周一至周日00:00-24:00,https://admin.bjev520.com/jsp/beiqi/pcmap/do/pcmap_Detail.jsp?charingId=100294,"121.453488,31.227833",静安区,121.44890563477314,31.229726657251526
特来电上海绿洲中环充电站,上海市市辖区普陀区金沙江路1628弄-2,0,14,其他,00:00~24:00:1.1,00:00~24:00:0.72,8元/小时，半小时内免费，80元封顶（仅供参考，以场地实际费用为准）,开放时间：周一至周日00:00-24:00,https://admin.bjev520.com/jsp/beiqi/pcmap/do/pcmap_Detail.jsp?charingId=100298,"121.379177,31.233302",普陀区,121.37453827087863,31.235147084916502
特来电上海普陀金光小区充电站,上海市市辖区普陀区古浪路355号,0,39,其他,00:00~24:00:0.7,00:00~24:00:0.8,不详,开放时间：周一至周日00:00-24:00,https://admin.bjev520.com/jsp/beiqi/pcmap/do/pcmap_Detail.jsp?charingId=100299,"121.387420,31.282712",普陀区,121.38276941561637,31.284529079200887
特来电上海苏宁天御广场B1单桩充电站,上海市市辖区普陀区丹巴路99 号,2,59,其他,00:00~24:00:1.3,00:00~24:00:0.8,半小时以内免费，超过半小时7元/时，全天56元封顶（仅供参考，以场地实际收费为准）,开放时间：周一至周日00:00-24:00,https://admin.bjev520.com/jsp/beiqi/pcmap/do/pcmap_Detail.jsp?charingId=100304,"121.380172,31.223282",普陀区,121.37553307245878,31.225130817472277
特来电上海同进理想城充电站,上海市市辖区普陀区金通路1118弄,0,31,其他,"00:00~06:00:0.2886,06:00~08:00:0.6758,08:00~11:00:1.192,11:00~18:00:0.6758,18:00~19:00:1.192,19:00~21:00:1.4117,21:00~22:00:0.6758,22:00~24:00:0.2886
",00:00~24:00:0.5,5元/小时，半小时免费（仅供参考，以场地实际费用为准）,开放时间：周一至周日00:00-24:00,https://admin.bjev520.com/jsp/beiqi/pcmap/do/pcmap_Detail.jsp?charingId=100305,"121.333463,31.291515",普陀区,121.32890249537115,31.29340550098605
特来电上海长征全民活动中心充电站,上海市市辖区普陀区清峪路385 号,0,2,其他,"00:00~06:00:0.213,06:00~08:00:0.567,08:00~11:00:0.916,11:00~18:00:0.567,18:00~21:00:0.916,21:00~22:00:0.567,22:00~24:00:0.213
","00:00~06:00:0.8,06:00~08:00:0.8,08:00~11:00:0.584,11:00~18:00:0.8,18:00~21:00:0.584,21:00~22:00:0.8,22:00~24:00:0.8",5元/小时（仅供参考，以场地实际费用为准）,开放时间：周一至周日00:00-24:00,https://admin.bjev520.com/jsp/beiqi/pcmap/do/pcmap_Detail.jsp?charingId=100306,"121.369071,31.240430",普陀区,121.36444480607855,31.24228305408448
特来电上海中天新曹杨商务充电站,上海市市辖区普陀区怒江北路302弄,1,6,其他,00:00~24:00:1.4,00:00~24:00:0.9,8元/小时（仅供参考，以场地实际费用为准）,开放时间：周一至周日00:00-24:00,https://admin.bjev520.com/jsp/beiqi/pcmap/do/pcmap_Detail.jsp?charingId=100307,"121.391777,31.236641",普陀区,121.38712771367581,31.238475723671215
特来电上海长征工业园南区充电站,上海市市辖区普陀区同普路1130弄(长征坊)，1153弄(云岭坊)，1175弄(同普坊1号3号楼)。,8,43,其他,00:00~24:00:0.99,00:00~24:00:0.5,前半小时免费，5元/时（仅供参考，以现场实际收费为准）,开放时间：周一至周日00:00-24:00,https://admin.bjev520.com/jsp/beiqi/pcmap/do/pcmap_Detail.jsp?charingId=100308,"121.371219,31.228392",普陀区,121.36659072499229,31.23024790888918
特来电上海景源时尚产业园区充电站,上海市普陀区长寿路652号-109室长寿路652号,5,0,其他,"00:00~06:00:0.266,06:00~08:00:0.538,08:00~11:00:0.888,11:00~18:00:0.538,18:00~21:00:0.888,21:00~22:00:0.538,22:00~24:00:0.266
","00:00~06:00:0.8,06:00~08:00:0.8,08:00~11:00:0.612,11:00~18:00:0.8,18:00~21:00:0.612,21:00~22:00:0.8,22:00~24:00:0.8",10元/小时（仅供参考，以场地实际费用为准）,开放时间：周一至周日00:00-24:00,https://admin.bjev520.com/jsp/beiqi/pcmap/do/pcmap_Detail.jsp?charingId=100311,"121.433333,31.237001",普陀区,121.42870689396443,31.23885453518548
特来电上海苏宁天御二期B1充电站,上海市市辖区普陀区丹巴路99号,9,0,其他,00:00~24:00:1.3,00:00~24:00:0.8,半小时以内免费，超过半小时7元/时，全天56元封顶,开放时间：周一至周日00:00-24:00,https://admin.bjev520.com/jsp/beiqi/pcmap/do/pcmap_Detail.jsp?charingId=100312,"121.380172,31.223282",普陀区,121.37553307245878,31.225130817472277
特来电上海汇银铭尊充电站,上海市市辖区普陀区云岭东路599弄11号汇银铭尊（3-5号地库，下地库右转）,6,0,其他,00:00~24:00:1.3,00:00~24:00:0.8,5元/时（仅供参考，以场地实际收费为准）,开放时间：周一至周日00:00-24:00,https://admin.bjev520.com/jsp/beiqi/pcmap/do/pcmap_Detail.jsp?charingId=100313,"121.382542,31.221860",普陀区,121.37790081963655,31.22370744796325
特来电上海红星美凯龙真北店充电站,上海市市辖区普陀区真北路1108号-3楼-8050室,9,0,其他,"00:00~06:00:0.2749,06:00~08:00:0.6436,08:00~11:00:1.1352,11:00~18:00:0.6436,18:00~19:00:1.1352,19:00~21:00:1.5529,21:00~22:00:0.6436,22:00~24:00:0.2749
","00:00~06:00:0.5744,06:00~08:00:0.4422,08:00~11:00:0.2143,11:00~18:00:0.4422,18:00~21:00:0.2143,21:00~22:00:0.4422,22:00~24:00:0.5744",不详,开放时间：周一至周日00:00-24:00,https://admin.bjev520.com/jsp/beiqi/pcmap/do/pcmap_Detail.jsp?charingId=100315,"121.383905,31.238558",普陀区,121.37926111131299,31.24039665395036
特来电上海都市工业园区充电站,上海市市辖区静安区延长中路625号,0,10,其他,00:00~24:00:1.3,00:00~24:00:0.8,前15分钟免费，10元/时(仅供参考，以场地实际收费为准),开放时间：周一至周日00:00-24:00,https://admin.bjev520.com/jsp/beiqi/pcmap/do/pcmap_Detail.jsp?charingId=100324,"121.448467,31.268926",静安区,121.44386864552317,31.27079096813945
特来电上海国际商厦充电站,上海市市辖区虹口区海宁路358号,1,3,其他,00:00~24:00:1.3,00:00~24:00:0.7,前15分钟免费，10元/时，封顶100（仅供参考，以场地实际费用为准）,开放时间：周一至周日06:00-18:00,https://admin.bjev520.com/jsp/beiqi/pcmap/do/pcmap_Detail.jsp?charingId=100325,"121.485659,31.250843",虹口区,121.4811747435764,31.252809881671627
特来电上海体育园汽车充电站,上海市市辖区杨浦区恒仁路350号,0,8,其他,"00:00~06:00:0.3024,06:00~08:00:0.708,08:00~11:00:1.2487,11:00~18:00:0.708,18:00~19:00:1.2487,19:00~21:00:1.4117,21:00~22:00:0.708,22:00~24:00:0.3024
",00:00~24:00:0.8,5元/小时（仅供参考，以场地实际费用为准）,开放时间：周一至周日00:00-24:00,https://admin.bjev520.com/jsp/beiqi/pcmap/do/pcmap_Detail.jsp?charingId=100331,"121.523638,31.314342",杨浦区,121.51928331705082,31.316394773798045
特来电上海杨浦创环物业充电站,上海市市辖区杨浦区国达路118号,0,4,其他,"00:00~06:00:0.46,06:00~08:00:0.85,08:00~11:00:1.32,11:00~18:00:0.85,18:00~21:00:1.32,21:00~22:00:0.85,22:00~24:00:0.46
","00:00~06:00:1.0,06:00~08:00:1.0,08:00~11:00:1.0,11:00~18:00:1.0,18:00~21:00:1.0,21:00~22:00:1.0,22:00~24:00:1.0",7元/小时（仅供参考，以场地实际费用为准）,开放时间：周一至周日00:00-24:00,https://admin.bjev520.com/jsp/beiqi/pcmap/do/pcmap_Detail.jsp?charingId=100332,"121.508146,31.297020",杨浦区,121.50373850943114,31.29903463082329
特来电上海君庭广场充电站,上海市市辖区杨浦区国霞路60号,4,24,其他,"00:00~06:00:0.2749,06:00~08:00:0.6436,08:00~11:00:1.1352,11:00~18:00:0.6436,18:00~19:00:1.1352,19:00~21:00:1.4117,21:00~22:00:0.6436,22:00~24:00:0.2749
",00:00~24:00:0.8,不详,开放时间：周一至周日00:00-24:00,https://admin.bjev520.com/jsp/beiqi/pcmap/do/pcmap_Detail.jsp?charingId=100336,"121.506532,31.310789",杨浦区,121.50211753045078,31.312793459985045
特来电上海和合物业充电站,上海市市辖区杨浦区江浦路1508号,0,4,其他,00:00~24:00:0.65,00:00~24:00:0.8,首小时10元/小时，后面以每5元/小时依据时间递增收费（仅供参考，以场地实际费用为准）,开放时间：周一至周日00:00-24:00,https://admin.bjev520.com/jsp/beiqi/pcmap/do/pcmap_Detail.jsp?charingId=100338,"121.519479,31.274098",杨浦区,121.51511350485264,31.27615512398649
特来电上海复旦科技园充电站,上海市市辖区杨浦区国泰路11号,0,4,其他,00:00~24:00:1.27,00:00~24:00:0.8,"5元/小时,半小时内免费（仅供参考，以场地实际费用为准）",开放时间：周一至周日00:00-24:00,https://admin.bjev520.com/jsp/beiqi/pcmap/do/pcmap_Detail.jsp?charingId=100341,"121.507842,31.287944",杨浦区,121.5034341868811,31.289961364097742
特来电上海文通国际广场充电站,上海市市辖区杨浦区贵阳路398号,0,60,其他,00:00~24:00:1.3,00:00~24:00:0.7,停车费7元/时,开放时间：周一至周日00:00-24:00,https://admin.bjev520.com/jsp/beiqi/pcmap/do/pcmap_Detail.jsp?charingId=100348,"121.549883,31.274730",杨浦区,121.54561042300926,31.276862764247056
特来电上海市杨浦区硕和SOHO生活广场充电站,上海市市辖区杨浦区安波路493号,0,8,其他,00:00~24:00:1.15,00:00~24:00:0.8,7元/时,开放时间：周一至周日00:00-24:00,https://admin.bjev520.com/jsp/beiqi/pcmap/do/pcmap_Detail.jsp?charingId=100350,"121.528919,31.302222",杨浦区,121.52458284520877,31.304293813277226
特来电上海杨浦五角丰达充电站,上海市市辖区杨浦区政益路48号,1,7,其他,"00:00~06:00:0.28,06:00~08:00:0.72,08:00~11:00:1.2,11:00~13:00:0.72,13:00~15:00:1.2,15:00~18:00:0.72,18:00~21:00:1.2,21:00~22:00:0.72,22:00~24:00:0.28
","00:00~06:00:0.8,06:00~08:00:0.8,08:00~11:00:0.8,11:00~13:00:0.8,13:00~15:00:0.8,15:00~18:00:0.8,18:00~21:00:0.8,21:00~22:00:0.8,22:00~24:00:0.8",免停15分钟，10元/小时，每日最高40元。,开放时间：周一至周日00:00-24:00,https://admin.bjev520.com/jsp/beiqi/pcmap/do/pcmap_Detail.jsp?charingId=100351,"121.517130,31.302730",杨浦区,121.51275392346656,31.30476878329068
特来电上海杨浦藏狐公寓充电站,上海市市辖区杨浦区国伟路456号,0,5,其他,00:00~24:00:1.2,00:00~24:00:0.6,10分钟免费，5元/小时，单日最高收费20元,开放时间：周一至周日00:00-24:00,https://admin.bjev520.com/jsp/beiqi/pcmap/do/pcmap_Detail.jsp?charingId=100352,"121.531105,31.332043",杨浦区,121.52677337922309,31.334109422684914
特来电上海金球出租汽车充电站,上海市市辖区闵行区南辅路518号,10,0,其他,"00:00~06:00:0.2507,06:00~08:00:0.6796,08:00~11:00:1.081,11:00~13:00:0.6796,13:00~15:00:1.081,15:00~18:00:0.6796,18:00~21:00:1.081,21:00~22:00:0.6796,22:00~24:00:0.2507
","00:00~06:00:0.53,06:00~08:00:0.438,08:00~11:00:0.388,11:00~18:00:0.438,18:00~21:00:0.388,21:00~22:00:0.438,22:00~24:00:0.53",不详,开放时间：周一至周日08:00-19:00,https://admin.bjev520.com/jsp/beiqi/pcmap/do/pcmap_Detail.jsp?charingId=100356,"121.295741,31.203463",闵行区,121.29126936906933,31.205460593737566
特来电上海虹信医学中心充电站,上海市市辖区闵行区闵北路675号,0,33,其他,00:00~24:00:1.2,00:00~24:00:0.7,5元/小时（仅供参考，以场地实际收费为准）,开放时间：周一至周日00:00-24:00,https://admin.bjev520.com/jsp/beiqi/pcmap/do/pcmap_Detail.jsp?charingId=100358,"121.274611,31.210409",闵行区,121.27017092470012,31.212429345065306
特来电上海金虹桥广场充电站,上海市市辖区闵行区吴中路686号,3,4,其他,00:00~24:00:1.25,00:00~24:00:0.8,5元/时（仅供参考，以场地实际费用为准）,开放时间：周一至周日00:00-24:00,https://admin.bjev520.com/jsp/beiqi/pcmap/do/pcmap_Detail.jsp?charingId=100371,"121.295741,31.203463",闵行区,121.29126936906933,31.205460593737566
特来电上海网讯新材二期充电站,上海市市辖区闵行区元江路3399号,2,12,其他,00:00~24:00:1.3,00:00~24:00:0.8,5元/时（仅供参考，以场地实际收费为准）,开放时间：周一至周日00:00-24:00,https://admin.bjev520.com/jsp/beiqi/pcmap/do/pcmap_Detail.jsp?charingId=100372,"121.295741,31.203463",闵行区,121.29126936906933,31.205460593737566
特来电上海凯虹大厦充电站,上海市市辖区闵行区虹中路335弄-48号,6,2,其他,"00:00~06:00:0.3299,06:00~08:00:0.7723,08:00~11:00:1.3622,11:00~18:00:0.7723,18:00~19:00:1.3622,19:00~21:00:1.4117,21:00~22:00:0.7723,22:00~24:00:0.3299
","00:00~06:00:0.622,06:00~08:00:0.498,08:00~11:00:0.309,11:00~18:00:0.498,18:00~21:00:0.309,21:00~22:00:0.498,22:00~24:00:0.622",不详,开放时间：周一至周日00:00-24:00,https://admin.bjev520.com/jsp/beiqi/pcmap/do/pcmap_Detail.jsp?charingId=100375,"121.381531,31.181485",闵行区,121.37689431456326,31.18335294866383
特来电上海宝虹中心充电站,上海市市辖区闵行区中春路7761弄78宝虹中心,1,4,其他,"00:00~06:00:0.46,06:00~08:00:0.93,08:00~11:00:1.35,11:00~13:00:0.93,13:00~15:00:1.35,15:00~18:00:0.93,18:00~21:00:1.35,21:00~22:00:0.93,22:00~24:00:0.46
","00:00~06:00:0.8,06:00~08:00:0.8,08:00~11:00:0.8,11:00~13:00:0.8,13:00~15:00:0.8,15:00~18:00:0.8,18:00~21:00:0.8,21:00~22:00:0.8,22:00~24:00:0.8",半小时内停车免费，超过半小时按3元/小时收取，全天封顶18元（以场地方实际收费为准）,开放时间：周一至周日09:00-22:00,https://admin.bjev520.com/jsp/beiqi/pcmap/do/pcmap_Detail.jsp?charingId=100378,"121.295741,31.203463",闵行区,121.29126936906933,31.205460593737566
特来电上海开隆奥迪4S店300kw充电站,上海市市辖区闵行区吴中路1439号,6,0,其他,"00:00~06:00:0.3853,06:00~08:00:0.7219,08:00~12:00:1.1685,12:00~14:00:1.1686,14:00~15:00:1.1685,15:00~18:00:0.7219,18:00~21:00:1.1685,21:00~22:00:0.7219,22:00~24:00:0.3853
","00:00~06:00:0.634,06:00~08:00:0.562,08:00~11:00:0.412,11:00~18:00:0.562,18:00~21:00:0.412,21:00~22:00:0.562,22:00~24:00:0.634",不详,开放时间：周一至周日00:00-24:00,https://admin.bjev520.com/jsp/beiqi/pcmap/do/pcmap_Detail.jsp?charingId=100380,"121.295741,31.203463",闵行区,121.29126936906933,31.205460593737566
特来电上海锦和1199地面停车场充电站,上海市市辖区闵行区金都路1199号地面停车场,6,0,其他,"00:00~06:00:0.55,06:00~08:00:0.9,08:00~11:00:1.25,11:00~18:00:0.9,18:00~19:00:1.25,19:00~21:00:1.65,21:00~22:00:0.9,22:00~24:00:0.55
","00:00~06:00:0.47,06:00~08:00:0.25,08:00~11:00:0.07,11:00~18:00:0.25,18:00~21:00:0.07,21:00~22:00:0.25,22:00~24:00:0.47",不详,开放时间：周一至周日00:00-24:00,https://admin.bjev520.com/jsp/beiqi/pcmap/do/pcmap_Detail.jsp?charingId=100388,"121.295741,31.203463",闵行区,121.29126936906933,31.205460593737566
特来电上海吴淞医院充电站,上海市市辖区宝山区牡丹江路216号,9,0,其他,00:00~24:00:0.93,00:00~24:00:0.8,3元/小时，前15分钟免费，封顶24（仅供参考，以场地实际费用为准）,开放时间：周一至周日00:00-24:00,https://admin.bjev520.com/jsp/beiqi/pcmap/do/pcmap_Detail.jsp?charingId=100390,"121.495820,31.378139",宝山区,121.49136105620764,31.38008817581167
